Date,Source,Site ID,POC,Daily Mean PM2.5 Concentration,Units,Daily AQI Value,Local Site Name,Daily Obs Count,Percent Complete,AQS Parameter Code,AQS Parameter Description,Method Code,Method Description,CBSA Code,CBSA Name,State FIPS Code,State,County FIPS Code,County,Site Latitude,Site Longitude
03/07/2014,AQS,60450006,3,2.5,ug/m3 LC,14,Ukiah-Library,1,100.0,88101,PM2.5 - Local Conditions,170,Met One BAM-1020 Mass Monitor w/VSCC,46380.0,"Ukiah, CA",6,California,45,Mendocino,39.15047,-123.20655
02/09/2014,AQS,60650009,1,4.5,ug/m3 LC,25,Pechanga,1,100.0,88101,PM2.5 - Local Conditions,170,Met One BAM-1020 Mass Monitor w/VSCC,40140.0,"Riverside-San Bernardino-Ontario, CA",6,California,65,Riverside,33.4478670008682,-117.088649
09/26/2014,AQS,60333001,1,2.5,ug/m3 LC,14,Lakeport-Lakeport Blvd.,1,100.0,88101,PM2.5 - Local Conditions,143,R & P Model 2000 PM-2.5 Air Sampler w/VSCC,17340.0,"Clearlake, CA",6,California,33,Lake,39.0327,-122.92229
02/17/2014,AQS,60250005,3,25.7,ug/m3 LC,82,Calexico-Ethel Street,1,100.0,88101,PM2.5 - Local Conditions,170,Met One BAM-1020 Mass Monitor w/VSCC,20940.0,"El Centro, CA",6,California,25,Imperial,32.67618,-115.48307
10/12/2014,AQS,60658001,3,35.5,ug/m3 LC,101,Rubidoux,1,100.0,88502,Acceptable PM2.5 AQI & Speciation Mass,731,Met-One BAM-1020 W/PM2.5 SCC,40140.0,"Riverside-San Bernardino-Ontario, CA",6,California,65,Riverside,33.9995800008751,-117.41601
06/15/2014,AQS,61030006,3,-2.1,ug/m3 LC,0,RED BLUFF-310 S. MAIN STREET,1,100.0,88502,Acceptable PM2.5 AQI & Speciation Mass,170,Met-one BAM-1020 W/PM2.5 SCC,39780.0,"Red Bluff, CA",6,California,103,Tehama,40.1678004008256,-122.227138487452
03/15/2014,AQS,60374004,3,17.3,ug/m3 LC,66,Long Beach (South),1,100.0,88502,Acceptable PM2.5 AQI & Speciation Mass,170,Met-one BAM-1020 W/PM2.5 SCC,31080.0,"Los Angeles-Long Beach-Anaheim, CA",6,California,37,Los Angeles,33.79236,-118.17533
12/14/2014,AQS,60773005,3,9.2,ug/m3 LC,51,Tracy-Airport,1,100.0,88502,Acceptable PM2.5 AQI & Speciation Mass,731,Met-One BAM-1020 W/PM2.5 SCC,44700.0,"Stockton-Lodi, CA",6,California,77,San Joaquin,37.682635,-121.442495
11/27/2014,AQS,60658001,9,9.6,ug/m3 LC,52,Rubidoux,1,100.0,88502,Acceptable PM2.5 AQI & Speciation Mass,170,Met-one BAM-1020 W/PM2.5 SCC,40140.0,"Riverside-San Bernardino-Ontario, CA",6,California,65,Riverside,33.9995800008751,-117.41601
04/02/2014,AQS,60631006,1,4.1,ug/m3 LC,23,Quincy-N Church Street,1,100.0,88101,PM2.5 - Local Conditions,118,R & P Model 2025 PM2.5 Sequential w/WINS,,,6,California,63,Plumas,39.9395670009288,-120.944376
05/03/2014,AQS,60070008,4,4.3,ug/m3 LC,24,Chico-East Avenue,1,100.0,88502,Acceptable PM2.5 AQI & Speciation Mass,731,Met-One BAM-1020 W/PM2.5 SCC,17020.0,"Chico, CA",6,California,7,Butte,39.76168,-121.84047
04/30/2014,AQS,60658005,3,8.1,ug/m3 LC,45,Mira Loma (Van Buren),1,100.0,88502,Acceptable PM2.5 AQI & Speciation Mass,170,Met-one BAM-1020 W/PM2.5 SCC,40140.0,"Riverside-San Bernardino-Ontario, CA",6,California,65,Riverside,33.996360000875,-117.4924
05/12/2014,AQS,60792007,1,14.3,ug/m3 LC,61,CDF,1,100.0,88101,PM2.5 - Local Conditions,170,Met One BAM-1020 Mass Monitor w/VSCC,42020.0,"San Luis Obispo-Paso Robles-Arroyo Grande, CA",6,California,79,San Luis Obispo,35.0467300008874,-120.58777
01/18/2014,AQS,60410001,3,17.1,ug/m3 LC,66,San Rafael,1,100.0,88101,PM2.5 - Local Conditions,170,Met One BAM-1020 Mass Monitor w/VSCC,41860.0,"San Francisco-Oakland-Hayward, CA",6,California,41,Marin,37.97231,-122.520004
04/20/2014,AQS,60470003,3,6.2,ug/m3 LC,34,Merced-Coffee,1,100.0,88101,PM2.5 - Local Conditions,170,Met One BAM-1020 Mass Monitor w/VSCC,32900.0,"Merced, CA",6,California,47,Merced,37.281853,-120.433671
06/06/2014,AQS,60311004,3,9.8,ug/m3 LC,52,Hanford-Irwin,1,100.0,88101,PM2.5 - Local Conditions,170,Met One BAM-1020 Mass Monitor w/VSCC,25260.0,"Hanford-Corcoran, CA",6,California,31,Kings,36.31567,-119.643447
11/23/2014,AQS,60750005,3,4.2,ug/m3 LC,23,San Francisco,1,100.0,88101,PM2.5 - Local Conditions,170,Met One BAM-1020 Mass Monitor w/VSCC,41860.0,"San Francisco-Oakland-Hayward, CA",6,California,75,San Francisco,37.765946,-122.399044
10/02/2014,AQS,60659000,1,3.3,ug/m3 LC,18,Aqua Tibia Wilderness,1,100.0,88502,Acceptable PM2.5 AQI & Speciation Mass,707,"IMPROVE Module A with Cyclone Inlet-Teflon Filter, 2.2 sq. cm.",40140.0,"Riverside-San Bernardino-Ontario, CA",6,California,65,Riverside,33.4636438345227,-116.971457297006
09/20/2014,AQS,60519000,1,4.3,ug/m3 LC,24,Hoover Wilderness,1,100.0,88502,Acceptable PM2.5 AQI & Speciation Mass,707,"IMPROVE Module A with Cyclone Inlet-Teflon Filter, 2.2 sq. cm.",,,6,California,51,Mono,38.0880230383045,-119.178068761591
04/19/2014,AQS,60690002,3,5.3,ug/m3 LC,29,Hollister,1,100.0,88101,PM2.5 - Local Conditions,170,Met One BAM-1020 Mass Monitor w/VSCC,41940.0,"San Jose-Sunnyvale-Santa Clara, CA",6,California,69,San Benito,36.8434250009057,-121.3621
01/26/2014,AQS,60832011,1,11.8,ug/m3 LC,56,Goleta,1,100.0,88101,PM2.5 - Local Conditions,170,Met One BAM-1020 Mass Monitor w/VSCC,42200.0,"Santa Maria-Santa Barbara, CA",6,California,83,Santa Barbara,34.4455100008805,-119.8284
11/18/2014,AQS,60250005,1,16.3,ug/m3 LC,64,Calexico-Ethel Street,1,100.0,88101,PM2.5 - Local Conditions,145,R & P Model 2025 PM-2.5 Sequential Air Sampler w/VSCC,20940.0,"El Centro, CA",6,California,25,Imperial,32.67618,-115.48307
12/24/2014,AQS,61112002,4,5.6,ug/m3 LC,31,Simi Valley-Cochran Street,1,100.0,88101,PM2.5 - Local Conditions,170,Met One BAM-1020 Mass Monitor w/VSCC,37100.0,"Oxnard-Thousand Oaks-Ventura, CA",6,California,111,Ventura,34.276316,-118.683685
11/12/2014,AQS,60870007,3,4.1,ug/m3 LC,23,Santa Cruz,1,100.0,88101,PM2.5 - Local Conditions,170,Met One BAM-1020 Mass Monitor w/VSCC,42100.0,"Santa Cruz-Watsonville, CA",6,California,87,Santa Cruz,36.983320000907,-121.98822
07/19/2014,AQS,60074001,3,6.5,ug/m3 LC,36,"TRAFFIC, RURAL PAVED ROAD",1,100.0,88502,Acceptable PM2.5 AQI & Speciation Mass,731,Met-One BAM-1020 W/PM2.5 SCC,17020.0,"Chico, CA",6,California,7,Butte,39.327563,-121.668811
11/04/2014,AQS,60990005,5,23.1,ug/m3 LC,77,Modesto-14th Street,1,100.0,88502,Acceptable PM2.5 AQI & Speciation Mass,810,Met One SASS/SuperSASS Teflon,33700.0,"Modesto, CA",6,California,99,Stanislaus,37.642165,-120.994212
06/24/2014,AQS,60650012,3,24.4,ug/m3 LC,80,Banning Airport,1,100.0,88502,Acceptable PM2.5 AQI & Speciation Mass,731,Met-One BAM-1020 W/PM2.5 SCC,40140.0,"Riverside-San Bernardino-Ontario, CA",6,California,65,Riverside,33.92086,-116.85841
07/25/2014,AQS,61071001,1,8.0,ug/m3 LC,44,Sequoia NP-Ash Mountain,1,100.0,88502,Acceptable PM2.5 AQI & Speciation Mass,707,"IMPROVE Module A with Cyclone Inlet-Teflon Filter, 2.2 sq. cm.",47300.0,"Visalia-Porterville, CA",6,California,107,Tulare,36.498834948,-118.824821113
02/16/2014,AQS,60374004,1,9.8,ug/m3 LC,52,Long Beach (South),1,100.0,88101,PM2.5 - Local Conditions,120,Andersen RAAS2.5-300 PM2.5 SEQ w/WINS,31080.0,"Los Angeles-Long Beach-Anaheim, CA",6,California,37,Los Angeles,33.79236,-118.17533
07/04/2014,AQS,60450006,3,3.9,ug/m3 LC,22,Ukiah-Library,1,100.0,88101,PM2.5 - Local Conditions,170,Met One BAM-1020 Mass Monitor w/VSCC,46380.0,"Ukiah, CA",6,California,45,Mendocino,39.15047,-123.20655
05/28/2014,AQS,60070008,3,1.3,ug/m3 LC,7,Chico-East Avenue,1,100.0,88502,Acceptable PM2.5 AQI & Speciation Mass,731,Met-One BAM-1020 W/PM2.5 SCC,17020.0,"Chico, CA",6,California,7,Butte,39.76168,-121.84047
11/04/2014,AQS,60658001,3,3.2,ug/m3 LC,18,Rubidoux,1,100.0,88502,Acceptable PM2.5 AQI & Speciation Mass,731,Met-One BAM-1020 W/PM2.5 SCC,40140.0,"Riverside-San Bernardino-Ontario, CA",6,California,65,Riverside,33.9995800008751,-117.41601
01/29/2014,AQS,60610006,1,9.9,ug/m3 LC,52,Roseville-N Sunrise Ave,1,100.0,88101,PM2.5 - Local Conditions,117,R & P Model 2000 PM2.5 Sampler w/WINS,40900.0,"Sacramento--Roseville--Arden-Arcade, CA",6,California,61,Placer,38.74643,-121.26498
05/14/2014,AQS,61010003,3,10.8,ug/m3 LC,54,Yuba City,1,100.0,88502,Acceptable PM2.5 AQI & Speciation Mass,731,Met-One BAM-1020 W/PM2.5 SCC,49700.0,"Yuba City, CA",6,California,101,Sutter,39.1387725442464,-121.618548986224
12/12/2014,AQS,61010003,1,3.9,ug/m3 LC,22,Yuba City,1,100.0,88101,PM2.5 - Local Conditions,145,R & P Model 2025 PM-2.5 Sequential Air Sampler w/VSCC,49700.0,"Yuba City, CA",6,California,101,Sutter,39.1387725442464,-121.618548986224
04/13/2014,AQS,60111002,3,8.3,ug/m3 LC,46,Colusa-Sunrise Blvd,1,100.0,88502,Acceptable PM2.5 AQI & Speciation Mass,731,Met-One BAM-1020 W/PM2.5 SCC,,,6,California,11,Colusa,39.18919,-121.99887
04/11/2014,AQS,60270002,1,4.5,ug/m3 LC,25,White Mountain Research Center - Owens Valley Lab,1,100.0,88502,Acceptable PM2.5 AQI & Speciation Mass,707,"IMPROVE Module A with Cyclone Inlet-Teflon Filter, 2.2 sq. cm.",13860.0,"Bishop, CA",6,California,27,Inyo,37.360684,-118.330783
03/10/2014,AQS,60950004,3,5.6,ug/m3 LC,31,Vallejo,1,100.0,88101,PM2.5 - Local Conditions,170,Met One BAM-1020 Mass Monitor w/VSCC,46700.0,"Vallejo-Fairfield, CA",6,California,95,Solano,38.102507,-122.237976
09/05/2014,AQS,60658001,5,14.1,ug/m3 LC,60,Rubidoux,1,100.0,88502,Acceptable PM2.5 AQI & Speciation Mass,810,Met One SASS/SuperSASS Teflon,40140.0,"Riverside-San Bernardino-Ontario, CA",6,California,65,Riverside,33.9995800008751,-117.41601
08/09/2014,AQS,60658001,9,22.9,ug/m3 LC,77,Rubidoux,1,100.0,88502,Acceptable PM2.5 AQI & Speciation Mass,170,Met-one BAM-1020 W/PM2.5 SCC,40140.0,"Riverside-San Bernardino-Ontario, CA",6,California,65,Riverside,33.9995800008751,-117.41601
02/03/2014,AQS,60590007,3,6.8,ug/m3 LC,38,Anaheim,1,100.0,88502,Acceptable PM2.5 AQI & Speciation Mass,170,Met-one BAM-1020 W/PM2.5 SCC,31080.0,"Los Angeles-Long Beach-Anaheim, CA",6,California,59,Orange,33.83062,-117.93845
10/12/2014,AQS,60850006,3,5.0,ug/m3 LC,28,San Jose - Knox Avenue,1,100.0,88101,PM2.5 - Local Conditions,170,Met One BAM-1020 Mass Monitor w/VSCC,41940.0,"San Jose-Sunnyvale-Santa Clara, CA",6,California,85,Santa Clara,37.338135,-121.849783
05/24/2014,AQS,60731002,1,4.5,ug/m3 LC,25,Escondido,1,100.0,88502,Acceptable PM2.5 AQI & Speciation Mass,170,Met-one BAM-1020 W/PM2.5 SCC,41740.0,"San Diego-Carlsbad, CA",6,California,73,San Diego,33.127769000864,-117.075086
08/12/2014,AQS,61110009,3,11.7,ug/m3 LC,56,Piru - Pacific,1,100.0,88101,PM2.5 - Local Conditions,170,Met One BAM-1020 Mass Monitor w/VSCC,37100.0,"Oxnard-Thousand Oaks-Ventura, CA",6,California,111,Ventura,34.404281,-118.80998
06/10/2014,AQS,60712002,11,15.8,ug/m3 LC,63,Fontana,1,100.0,88502,Acceptable PM2.5 AQI & Speciation Mass,810,Met One SASS/SuperSASS Teflon,40140.0,"Riverside-San Bernardino-Ontario, CA",6,California,71,San Bernardino,34.10002,-117.49201
02/07/2014,AQS,60631006,1,5.0,ug/m3 LC,28,Quincy-N Church Street,1,100.0,88101,PM2.5 - Local Conditions,118,R & P Model 2025 PM2.5 Sequential w/WINS,,,6,California,63,Plumas,39.9395670009288,-120.944376
07/24/2014,AQS,60650012,3,11.8,ug/m3 LC,56,Banning Airport,1,100.0,88502,Acceptable PM2.5 AQI & Speciation Mass,731,Met-One BAM-1020 W/PM2.5 SCC,40140.0,"Riverside-San Bernardino-Ontario, CA",6,California,65,Riverside,33.92086,-116.85841
04/11/2014,AQS,60131004,3,13.0,ug/m3 LC,58,San Pablo,1,100.0,88101,PM2.5 - Local Conditions,170,Met One BAM-1020 Mass Monitor w/VSCC,41860.0,"San Francisco-Oakland-Hayward, CA",6,California,13,Contra Costa,37.9604,-122.356811
04/01/2014,AQS,60658005,1,4.1,ug/m3 LC,23,Mira Loma (Van Buren),1,100.0,88101,PM2.5 - Local Conditions,120,Andersen RAAS2.5-300 PM2.5 SEQ w/WINS,40140.0,"Riverside-San Bernardino-Ontario, CA",6,California,65,Riverside,33.996360000875,-117.4924
05/06/2014,AQS,60292009,3,5.0,ug/m3 LC,28,Lebec,1,100.0,88502,Acceptable PM2.5 AQI & Speciation Mass,731,Met-One BAM-1020 W/PM2.5 SCC,12540.0,"Bakersfield, CA",6,California,29,Kern,34.841567,-118.860588
08/19/2014,AQS,60290014,4,14.2,ug/m3 LC,61,Bakersfield-California,1,100.0,88502,Acceptable PM2.5 AQI & Speciation Mass,731,Met-One BAM-1020 W/PM2.5 SCC,12540.0,"Bakersfield, CA",6,California,29,Kern,35.356615,-119.062613
02/23/2014,AQS,60711004,3,17.4,ug/m3 LC,66,Upland,1,100.0,88502,Acceptable PM2.5 AQI & Speciation Mass,731,Met-One BAM-1020 W/PM2.5 SCC,40140.0,"Riverside-San Bernardino-Ontario, CA",6,California,71,San Bernardino,34.10374,-117.62914
11/25/2014,AQS,60430003,2,0.9,ug/m3 LC,5,Yosemite NP - Turtleback Dome,1,100.0,88502,Acceptable PM2.5 AQI & Speciation Mass,707,"IMPROVE Module A with Cyclone Inlet-Teflon Filter, 2.2 sq. cm.",,,6,California,43,Mariposa,37.71325,-119.7062
03/26/2014,AQS,60659001,3,4.4,ug/m3 LC,24,Lake Elsinore,1,100.0,88502,Acceptable PM2.5 AQI & Speciation Mass,731,Met-One BAM-1020 W/PM2.5 SCC,40140.0,"Riverside-San Bernardino-Ontario, CA",6,California,65,Riverside,33.67649,-117.33098
04/22/2014,AQS,60750005,3,3.2,ug/m3 LC,18,San Francisco,1,100.0,88101,PM2.5 - Local Conditions,170,Met One BAM-1020 Mass Monitor w/VSCC,41860.0,"San Francisco-Oakland-Hayward, CA",6,California,75,San Francisco,37.765946,-122.399044
06/23/2014,AQS,60250005,4,19.0,ug/m3 LC,69,Calexico-Ethel Street,1,100.0,88101,PM2.5 - Local Conditions,170,Met One BAM-1020 Mass Monitor w/VSCC,20940.0,"El Centro, CA",6,California,25,Imperial,32.67618,-115.48307
06/03/2014,AQS,60990005,3,6.3,ug/m3 LC,35,Modesto-14th Street,1,100.0,88101,PM2.5 - Local Conditions,170,Met One BAM-1020 Mass Monitor w/VSCC,33700.0,"Modesto, CA",6,California,99,Stanislaus,37.642165,-120.994212
03/11/2014,AQS,60950004,4,7.2,ug/m3 LC,40,Vallejo,1,100.0,88101,PM2.5 - Local Conditions,170,Met One BAM-1020 Mass Monitor w/VSCC,46700.0,"Vallejo-Fairfield, CA",6,California,95,Solano,38.102507,-122.237976
08/28/2014,AQS,61110009,3,10.8,ug/m3 LC,54,Piru - Pacific,1,100.0,88101,PM2.5 - Local Conditions,170,Met One BAM-1020 Mass Monitor w/VSCC,37100.0,"Oxnard-Thousand Oaks-Ventura, CA",6,California,111,Ventura,34.404281,-118.80998
04/18/2014,AQS,60850005,3,6.5,ug/m3 LC,36,San Jose - Jackson,1,100.0,88101,PM2.5 - Local Conditions,170,Met One BAM-1020 Mass Monitor w/VSCC,41940.0,"San Jose-Sunnyvale-Santa Clara, CA",6,California,85,Santa Clara,37.348497,-121.894898
03/29/2014,AQS,60371201,3,13.9,ug/m3 LC,60,Reseda,1,100.0,88502,Acceptable PM2.5 AQI & Speciation Mass,731,Met-One BAM-1020 W/PM2.5 SCC,31080.0,"Los Angeles-Long Beach-Anaheim, CA",6,California,37,Los Angeles,34.19925,-118.53276
06/07/2014,AQS,61071001,1,11.1,ug/m3 LC,55,Sequoia NP-Ash Mountain,1,100.0,88502,Acceptable PM2.5 AQI & Speciation Mass,707,"IMPROVE Module A with Cyclone Inlet-Teflon Filter, 2.2 sq. cm.",47300.0,"Visalia-Porterville, CA",6,California,107,Tulare,36.498834948,-118.824821113
11/17/2014,AQS,60470003,3,17.4,ug/m3 LC,66,Merced-Coffee,1,100.0,88101,PM2.5 - Local Conditions,170,Met One BAM-1020 Mass Monitor w/VSCC,32900.0,"Merced, CA",6,California,47,Merced,37.281853,-120.433671
01/10/2014,AQS,61010003,3,17.4,ug/m3 LC,66,Yuba City,1,100.0,88502,Acceptable PM2.5 AQI & Speciation Mass,731,Met-One BAM-1020 W/PM2.5 SCC,49700.0,"Yuba City, CA",6,California,101,Sutter,39.1387725442464,-121.618548986224
05/05/2014,AQS,60010011,3,7.2,ug/m3 LC,40,Oakland West,1,100.0,88101,PM2.5 - Local Conditions,170,Met One BAM-1020 Mass Monitor w/VSCC,41860.0,"San Francisco-Oakland-Hayward, CA",6,California,1,Alameda,37.814781,-122.282347
12/27/2014,AQS,60831008,3,7.3,ug/m3 LC,41,Santa Maria,1,100.0,88101,PM2.5 - Local Conditions,170,Met One BAM-1020 Mass Monitor w/VSCC,42200.0,"Santa Maria-Santa Barbara, CA",6,California,83,Santa Barbara,34.942872,-120.435611
10/05/2014,AQS,60710005,3,3.3,ug/m3 LC,18,Crestline,1,100.0,88502,Acceptable PM2.5 AQI & Speciation Mass,731,Met-One BAM-1020 W/PM2.5 SCC,40140.0,"Riverside-San Bernardino-Ontario, CA",6,California,71,San Bernardino,34.2431,-117.27235
04/15/2014,AQS,60792004,1,15.3,ug/m3 LC,63,Mesa2,1,100.0,88101,PM2.5 - Local Conditions,170,Met One BAM-1020 Mass Monitor w/VSCC,42020.0,"San Luis Obispo-Paso Robles-Arroyo Grande, CA",6,California,79,San Luis Obispo,35.02083,-120.56388
08/11/2014,AQS,60410001,3,8.6,ug/m3 LC,48,San Rafael,1,100.0,88101,PM2.5 - Local Conditions,170,Met One BAM-1020 Mass Monitor w/VSCC,41860.0,"San Francisco-Oakland-Hayward, CA",6,California,41,Marin,37.97231,-122.520004
10/13/2014,AQS,60290014,3,11.3,ug/m3 LC,55,Bakersfield-California,1,100.0,88502,Acceptable PM2.5 AQI & Speciation Mass,731,Met-One BAM-1020 W/PM2.5 SCC,12540.0,"Bakersfield, CA",6,California,29,Kern,35.356615,-119.062613
01/05/2014,AQS,60550003,3,22.0,ug/m3 LC,75,Napa,1,100.0,88101,PM2.5 - Local Conditions,170,Met One BAM-1020 Mass Monitor w/VSCC,34900.0,"Napa, CA",6,California,55,Napa,38.310942,-122.296189
03/19/2014,AQS,60773005,3,4.6,ug/m3 LC,26,Tracy-Airport,1,100.0,88502,Acceptable PM2.5 AQI & Speciation Mass,731,Met-One BAM-1020 W/PM2.5 SCC,44700.0,"Stockton-Lodi, CA",6,California,77,San Joaquin,37.682635,-121.442495
05/25/2014,AQS,60070008,1,10.2,ug/m3 LC,53,Chico-East Avenue,1,100.0,88101,PM2.5 - Local Conditions,145,R & P Model 2025 PM-2.5 Sequential Air Sampler w/VSCC,17020.0,"Chico, CA",6,California,7,Butte,39.76168,-121.84047
04/15/2014,AQS,61030006,3,-0.4,ug/m3 LC,0,RED BLUFF-310 S. MAIN STREET,1,100.0,88502,Acceptable PM2.5 AQI & Speciation Mass,170,Met-one BAM-1020 W/PM2.5 SCC,39780.0,"Red Bluff, CA",6,California,103,Tehama,40.1678004008256,-122.227138487452
06/04/2014,AQS,60199000,1,6.0,ug/m3 LC,33,Kaiser Wilderness,1,100.0,88502,Acceptable PM2.5 AQI & Speciation Mass,707,"IMPROVE Module A with Cyclone Inlet-Teflon Filter, 2.2 sq. cm.",23420.0,"Fresno, CA",6,California,19,Fresno,37.2206398607598,-119.155556956851
04/06/2014,AQS,60670012,3,3.0,ug/m3 LC,17,Folsom-Natoma St.,1,100.0,88101,PM2.5 - Local Conditions,170,Met One BAM-1020 Mass Monitor w/VSCC,40900.0,"Sacramento--Roseville--Arden-Arcade, CA",6,California,67,Sacramento,38.683304,-121.164457
03/19/2014,AQS,60670006,1,5.3,ug/m3 LC,29,Sacramento-Del Paso Manor,1,100.0,88101,PM2.5 - Local Conditions,145,R & P Model 2025 PM-2.5 Sequential Air Sampler w/VSCC,40900.0,"Sacramento--Roseville--Arden-Arcade, CA",6,California,67,Sacramento,38.6137790009202,-121.368014
05/26/2014,AQS,60070008,1,5.8,ug/m3 LC,32,Chico-East Avenue,1,100.0,88101,PM2.5 - Local Conditions,145,R & P Model 2025 PM-2.5 Sequential Air Sampler w/VSCC,17020.0,"Chico, CA",6,California,7,Butte,39.76168,-121.84047
01/17/2014,AQS,60850005,3,26.8,ug/m3 LC,84,San Jose - Jackson,1,100.0,88101,PM2.5 - Local Conditions,170,Met One BAM-1020 Mass Monitor w/VSCC,41940.0,"San Jose-Sunnyvale-Santa Clara, CA",6,California,85,Santa Clara,37.348497,-121.894898
07/15/2014,AQS,60711004,3,22.5,ug/m3 LC,76,Upland,1,100.0,88502,Acceptable PM2.5 AQI & Speciation Mass,731,Met-One BAM-1020 W/PM2.5 SCC,40140.0,"Riverside-San Bernardino-Ontario, CA",6,California,71,San Bernardino,34.10374,-117.62914
02/28/2014,AQS,60731011,3,4.8,ug/m3 LC,27,La Posta Reservation,1,100.0,88101,PM2.5 - Local Conditions,170,Met One BAM-1020 Mass Monitor w/VSCC,41740.0,"San Diego-Carlsbad, CA",6,California,73,San Diego,32.7252260005939,-116.365203426694
12/07/2014,AQS,60371103,11,9.5,ug/m3 LC,52,Los Angeles-North Main Street,1,100.0,88502,Acceptable PM2.5 AQI & Speciation Mass,810,Met One SASS/SuperSASS Teflon,31080.0,"Los Angeles-Long Beach-Anaheim, CA",6,California,37,Los Angeles,34.0665900008759,-118.22688
04/18/2014,AQS,60290011,3,9.2,ug/m3 LC,51,Mojave,1,100.0,88101,PM2.5 - Local Conditions,170,Met One BAM-1020 Mass Monitor w/VSCC,12540.0,"Bakersfield, CA",6,California,29,Kern,35.0505513494936,-118.147293620967
08/19/2014,AQS,60231005,1,7.2,ug/m3 LC,40,Humboldt Hill,1,100.0,88502,Acceptable PM2.5 AQI & Speciation Mass,195,GRIMM EDM Model 180 with naphion dryer,21700.0,"Eureka-Arcata-Fortuna, CA",6,California,23,Humboldt,40.71528,-124.20139
03/21/2014,AQS,60731011,3,7.0,ug/m3 LC,39,La Posta Reservation,1,100.0,88101,PM2.5 - Local Conditions,170,Met One BAM-1020 Mass Monitor w/VSCC,41740.0,"San Diego-Carlsbad, CA",6,California,73,San Diego,32.7252260005939,-116.365203426694
02/01/2014,AQS,60430003,1,1.3,ug/m3 LC,7,Yosemite NP - Turtleback Dome,1,100.0,88502,Acceptable PM2.5 AQI & Speciation Mass,707,"IMPROVE Module A with Cyclone Inlet-Teflon Filter, 2.2 sq. cm.",,,6,California,43,Mariposa,37.71325,-119.7062
11/08/2014,AQS,60771002,3,27.3,ug/m3 LC,85,Stockton-Hazelton,1,100.0,88101,PM2.5 - Local Conditions,170,Met One BAM-1020 Mass Monitor w/VSCC,44700.0,"Stockton-Lodi, CA",6,California,77,San Joaquin,37.9507408985318,-121.268522670981
03/23/2014,AQS,60731011,3,7.0,ug/m3 LC,39,La Posta Reservation,1,100.0,88101,PM2.5 - Local Conditions,170,Met One BAM-1020 Mass Monitor w/VSCC,41740.0,"San Diego-Carlsbad, CA",6,California,73,San Diego,32.7252260005939,-116.365203426694
07/31/2014,AQS,60430003,1,20.6,ug/m3 LC,72,Yosemite NP - Turtleback Dome,1,100.0,88502,Acceptable PM2.5 AQI & Speciation Mass,707,"IMPROVE Module A with Cyclone Inlet-Teflon Filter, 2.2 sq. cm.",,,6,California,43,Mariposa,37.71325,-119.7062
04/12/2014,AQS,61110009,3,14.8,ug/m3 LC,62,Piru - Pacific,1,100.0,88101,PM2.5 - Local Conditions,170,Met One BAM-1020 Mass Monitor w/VSCC,37100.0,"Oxnard-Thousand Oaks-Ventura, CA",6,California,111,Ventura,34.404281,-118.80998
06/26/2014,AQS,60792006,3,1.6,ug/m3 LC,9,San Luis Obispo,1,100.0,88101,PM2.5 - Local Conditions,170,Met One BAM-1020 Mass Monitor w/VSCC,42020.0,"San Luis Obispo-Paso Robles-Arroyo Grande, CA",6,California,79,San Luis Obispo,35.25651,-120.6693
01/31/2014,AQS,60658001,9,5.8,ug/m3 LC,32,Rubidoux,1,100.0,88502,Acceptable PM2.5 AQI & Speciation Mass,170,Met-one BAM-1020 W/PM2.5 SCC,40140.0,"Riverside-San Bernardino-Ontario, CA",6,California,65,Riverside,33.9995800008751,-117.41601
04/01/2014,AQS,60850005,3,2.0,ug/m3 LC,11,San Jose - Jackson,1,100.0,88101,PM2.5 - Local Conditions,170,Met One BAM-1020 Mass Monitor w/VSCC,41940.0,"San Jose-Sunnyvale-Santa Clara, CA",6,California,85,Santa Clara,37.348497,-121.894898
11/05/2014,AQS,60771002,3,28.5,ug/m3 LC,87,Stockton-Hazelton,1,100.0,88101,PM2.5 - Local Conditions,170,Met One BAM-1020 Mass Monitor w/VSCC,44700.0,"Stockton-Lodi, CA",6,California,77,San Joaquin,37.9507408985318,-121.268522670981
12/04/2014,AQS,60990005,3,4.9,ug/m3 LC,27,Modesto-14th Street,1,100.0,88101,PM2.5 - Local Conditions,170,Met One BAM-1020 Mass Monitor w/VSCC,33700.0,"Modesto, CA",6,California,99,Stanislaus,37.642165,-120.994212
07/09/2014,AQS,60271003,3,5.8,ug/m3 LC,32,Keeler,1,100.0,88101,PM2.5 - Local Conditions,181,Thermo Scientific TEOM 1400 FDMS or 1405 8500C FDMS w/VSCC,13860.0,"Bishop, CA",6,California,27,Inyo,36.487823,-117.871036
11/29/2014,AQS,60850005,3,5.0,ug/m3 LC,28,San Jose - Jackson,1,100.0,88101,PM2.5 - Local Conditions,170,Met One BAM-1020 Mass Monitor w/VSCC,41940.0,"San Jose-Sunnyvale-Santa Clara, CA",6,California,85,Santa Clara,37.348497,-121.894898
12/29/2014,AQS,60670012,3,18.1,ug/m3 LC,68,Folsom-Natoma St.,1,100.0,88101,PM2.5 - Local Conditions,170,Met One BAM-1020 Mass Monitor w/VSCC,40900.0,"Sacramento--Roseville--Arden-Arcade, CA",6,California,67,Sacramento,38.683304,-121.164457
02/10/2014,AQS,60610003,1,0.3,ug/m3 LC,2,Auburn-Atwood,1,100.0,88101,PM2.5 - Local Conditions,170,Met One BAM-1020 Mass Monitor w/VSCC,40900.0,"Sacramento--Roseville--Arden-Arcade, CA",6,California,61,Placer,38.93568,-121.09959
10/23/2014,AQS,60731006,1,6.5,ug/m3 LC,36,Alpine,1,100.0,88502,Acceptable PM2.5 AQI & Speciation Mass,170,Met-one BAM-1020 W/PM2.5 SCC,41740.0,"San Diego-Carlsbad, CA",6,California,73,San Diego,32.8423180008601,-116.768293
05/14/2014,AQS,60371201,1,4.8,ug/m3 LC,27,Reseda,1,100.0,88101,PM2.5 - Local Conditions,120,Andersen RAAS2.5-300 PM2.5 SEQ w/WINS,31080.0,"Los Angeles-Long Beach-Anaheim, CA",6,California,37,Los Angeles,34.19925,-118.53276
01/01/2014,AQS,60650016,3,8.3,ug/m3 LC,46,Temecula,1,100.0,88502,Acceptable PM2.5 AQI & Speciation Mass,731,Met-One BAM-1020 W/PM2.5 SCC,40140.0,"Riverside-San Bernardino-Ontario, CA",6,California,65,Riverside,33.5830180008699,-117.072202
01/21/2014,AQS,60074001,3,15.1,ug/m3 LC,62,"TRAFFIC, RURAL PAVED ROAD",1,100.0,88502,Acceptable PM2.5 AQI & Speciation Mass,731,Met-One BAM-1020 W/PM2.5 SCC,17020.0,"Chico, CA",6,California,7,Butte,39.327563,-121.668811
06/18/2014,AQS,60271003,3,82.5,ug/m3 LC,170,Keeler,1,100.0,88101,PM2.5 - Local Conditions,181,Thermo Scientific TEOM 1400 FDMS or 1405 8500C FDMS w/VSCC,13860.0,"Bishop, CA",6,California,27,Inyo,36.487823,-117.871036
09/22/2014,AQS,60771002,3,5.0,ug/m3 LC,28,Stockton-Hazelton,1,100.0,88101,PM2.5 - Local Conditions,170,Met One BAM-1020 Mass Monitor w/VSCC,44700.0,"Stockton-Lodi, CA",6,California,77,San Joaquin,37.9507408985318,-121.268522670981
09/22/2014,AQS,60750005,3,4.4,ug/m3 LC,24,San Francisco,1,100.0,88101,PM2.5 - Local Conditions,170,Met One BAM-1020 Mass Monitor w/VSCC,41860.0,"San Francisco-Oakland-Hayward, CA",6,California,75,San Francisco,37.765946,-122.399044
04/22/2014,AQS,60131004,3,6.6,ug/m3 LC,37,San Pablo,1,100.0,88101,PM2.5 - Local Conditions,170,Met One BAM-1020 Mass Monitor w/VSCC,41860.0,"San Francisco-Oakland-Hayward, CA",6,California,13,Contra Costa,37.9604,-122.356811
01/24/2014,AQS,60374004,3,30.2,ug/m3 LC,90,Long Beach (South),1,100.0,88502,Acceptable PM2.5 AQI & Speciation Mass,170,Met-one BAM-1020 W/PM2.5 SCC,31080.0,"Los Angeles-Long Beach-Anaheim, CA",6,California,37,Los Angeles,33.79236,-118.17533
01/13/2014,AQS,60670006,3,15.4,ug/m3 LC,63,Sacramento-Del Paso Manor,1,100.0,88502,Acceptable PM2.5 AQI & Speciation Mass,731,Met-One BAM-1020 W/PM2.5 SCC,40900.0,"Sacramento--Roseville--Arden-Arcade, CA",6,California,67,Sacramento,38.6137790009202,-121.368014
08/12/2014,AQS,60250007,1,7.1,ug/m3 LC,39,Brawley-220 Main Street,1,100.0,88101,PM2.5 - Local Conditions,118,R & P Model 2025 PM2.5 Sequential w/WINS,20940.0,"El Centro, CA",6,California,25,Imperial,32.97833,-115.53917
02/10/2014,AQS,60531003,2,7.6,ug/m3 LC,42,Salinas 3,1,100.0,88101,PM2.5 - Local Conditions,117,R & P Model 2000 PM2.5 Sampler w/WINS,41500.0,"Salinas, CA",6,California,53,Monterey,36.6942610009043,-121.623271
01/31/2014,AQS,60731002,1,4.0,ug/m3 LC,22,Escondido,1,100.0,88502,Acceptable PM2.5 AQI & Speciation Mass,170,Met-one BAM-1020 W/PM2.5 SCC,41740.0,"San Diego-Carlsbad, CA",6,California,73,San Diego,33.127769000864,-117.075086
11/14/2014,AQS,60250005,4,8.6,ug/m3 LC,48,Calexico-Ethel Street,1,100.0,88101,PM2.5 - Local Conditions,170,Met One BAM-1020 Mass Monitor w/VSCC,20940.0,"El Centro, CA",6,California,25,Imperial,32.67618,-115.48307
08/28/2014,AQS,60831008,3,9.7,ug/m3 LC,52,Santa Maria,1,100.0,88101,PM2.5 - Local Conditions,170,Met One BAM-1020 Mass Monitor w/VSCC,42200.0,"Santa Maria-Santa Barbara, CA",6,California,83,Santa Barbara,34.942872,-120.435611
03/13/2014,AQS,60010012,3,9.7,ug/m3 LC,52,Laney College,1,100.0,88101,PM2.5 - Local Conditions,170,Met One BAM-1020 Mass Monitor w/VSCC,41860.0,"San Francisco-Oakland-Hayward, CA",6,California,1,Alameda,37.793624,-122.263376
05/27/2014,AQS,60074001,3,6.0,ug/m3 LC,33,"TRAFFIC, RURAL PAVED ROAD",1,100.0,88502,Acceptable PM2.5 AQI & Speciation Mass,731,Met-One BAM-1020 W/PM2.5 SCC,17020.0,"Chico, CA",6,California,7,Butte,39.327563,-121.668811
06/01/2014,AQS,60659001,3,16.6,ug/m3 LC,65,Lake Elsinore,1,100.0,88502,Acceptable PM2.5 AQI & Speciation Mass,731,Met-One BAM-1020 W/PM2.5 SCC,40140.0,"Riverside-San Bernardino-Ontario, CA",6,California,65,Riverside,33.67649,-117.33098
11/29/2014,AQS,60010007,3,9.3,ug/m3 LC,51,Livermore,1,100.0,88101,PM2.5 - Local Conditions,170,Met One BAM-1020 Mass Monitor w/VSCC,41860.0,"San Francisco-Oakland-Hayward, CA",6,California,1,Alameda,37.687526,-121.784217
02/25/2014,AQS,60374004,3,13.2,ug/m3 LC,59,Long Beach (South),1,100.0,88502,Acceptable PM2.5 AQI & Speciation Mass,170,Met-one BAM-1020 W/PM2.5 SCC,31080.0,"Los Angeles-Long Beach-Anaheim, CA",6,California,37,Los Angeles,33.79236,-118.17533
12/19/2014,AQS,60771002,4,6.3,ug/m3 LC,35,Stockton-Hazelton,1,100.0,88101,PM2.5 - Local Conditions,170,Met One BAM-1020 Mass Monitor w/VSCC,44700.0,"Stockton-Lodi, CA",6,California,77,San Joaquin,37.9507408985318,-121.268522670981
12/13/2014,AQS,61010003,4,17.3,ug/m3 LC,66,Yuba City,1,100.0,88502,Acceptable PM2.5 AQI & Speciation Mass,731,Met-One BAM-1020 W/PM2.5 SCC,49700.0,"Yuba City, CA",6,California,101,Sutter,39.1387725442464,-121.618548986224
09/03/2014,AQS,60010009,3,9.1,ug/m3 LC,51,Oakland,1,100.0,88101,PM2.5 - Local Conditions,170,Met One BAM-1020 Mass Monitor w/VSCC,41860.0,"San Francisco-Oakland-Hayward, CA",6,California,1,Alameda,37.743065,-122.169935
08/20/2014,AQS,60731002,1,10.2,ug/m3 LC,53,Escondido,1,100.0,88502,Acceptable PM2.5 AQI & Speciation Mass,170,Met-one BAM-1020 W/PM2.5 SCC,41740.0,"San Diego-Carlsbad, CA",6,California,73,San Diego,33.127769000864,-117.075086
05/02/2014,AQS,60659000,1,3.3,ug/m3 LC,18,Aqua Tibia Wilderness,1,100.0,88502,Acceptable PM2.5 AQI & Speciation Mass,707,"IMPROVE Module A with Cyclone Inlet-Teflon Filter, 2.2 sq. cm.",40140.0,"Riverside-San Bernardino-Ontario, CA",6,California,65,Riverside,33.4636438345227,-116.971457297006
01/25/2014,AQS,60370016,3,5.2,ug/m3 LC,29,Glendora,1,100.0,88502,Acceptable PM2.5 AQI & Speciation Mass,731,Met-One BAM-1020 W/PM2.5 SCC,31080.0,"Los Angeles-Long Beach-Anaheim, CA",6,California,37,Los Angeles,34.14435,-117.85036
05/06/2014,AQS,60410001,3,12.2,ug/m3 LC,57,San Rafael,1,100.0,88101,PM2.5 - Local Conditions,170,Met One BAM-1020 Mass Monitor w/VSCC,41860.0,"San Francisco-Oakland-Hayward, CA",6,California,41,Marin,37.97231,-122.520004
02/26/2014,AQS,60470003,3,6.5,ug/m3 LC,36,Merced-Coffee,1,100.0,88101,PM2.5 - Local Conditions,170,Met One BAM-1020 Mass Monitor w/VSCC,32900.0,"Merced, CA",6,California,47,Merced,37.281853,-120.433671
10/28/2014,AQS,60010012,3,8.6,ug/m3 LC,48,Laney College,1,100.0,88101,PM2.5 - Local Conditions,170,Met One BAM-1020 Mass Monitor w/VSCC,41860.0,"San Francisco-Oakland-Hayward, CA",6,California,1,Alameda,37.793624,-122.263376
01/26/2014,AQS,60731201,1,5.9,ug/m3 LC,33,Pala Airpad,1,100.0,88101,PM2.5 - Local Conditions,236,Teledyne T640 at 5.0 LPM,41740.0,"San Diego-Carlsbad, CA",6,California,73,San Diego,33.3625928342781,-117.090229999878
10/10/2014,AQS,60610003,1,10.7,ug/m3 LC,54,Auburn-Atwood,1,100.0,88101,PM2.5 - Local Conditions,170,Met One BAM-1020 Mass Monitor w/VSCC,40900.0,"Sacramento--Roseville--Arden-Arcade, CA",6,California,61,Placer,38.93568,-121.09959
08/20/2014,AQS,60670012,3,4.7,ug/m3 LC,26,Folsom-Natoma St.,1,100.0,88101,PM2.5 - Local Conditions,170,Met One BAM-1020 Mass Monitor w/VSCC,40900.0,"Sacramento--Roseville--Arden-Arcade, CA",6,California,67,Sacramento,38.683304,-121.164457
10/15/2014,AQS,60392010,3,10.5,ug/m3 LC,54,Madera-City,1,100.0,88101,PM2.5 - Local Conditions,170,Met One BAM-1020 Mass Monitor w/VSCC,31460.0,"Madera, CA",6,California,39,Madera,36.953256,-120.034203
04/04/2014,AQS,60070008,1,4.4,ug/m3 LC,24,Chico-East Avenue,1,100.0,88101,PM2.5 - Local Conditions,145,R & P Model 2025 PM-2.5 Sequential Air Sampler w/VSCC,17020.0,"Chico, CA",6,California,7,Butte,39.76168,-121.84047
08/16/2014,AQS,60990005,3,6.0,ug/m3 LC,33,Modesto-14th Street,1,100.0,88101,PM2.5 - Local Conditions,170,Met One BAM-1020 Mass Monitor w/VSCC,33700.0,"Modesto, CA",6,California,99,Stanislaus,37.642165,-120.994212
08/03/2014,AQS,60250005,1,6.8,ug/m3 LC,38,Calexico-Ethel Street,1,100.0,88101,PM2.5 - Local Conditions,145,R & P Model 2025 PM-2.5 Sequential Air Sampler w/VSCC,20940.0,"El Centro, CA",6,California,25,Imperial,32.67618,-115.48307
02/25/2014,AQS,60650012,3,12.4,ug/m3 LC,57,Banning Airport,1,100.0,88502,Acceptable PM2.5 AQI & Speciation Mass,731,Met-One BAM-1020 W/PM2.5 SCC,40140.0,"Riverside-San Bernardino-Ontario, CA",6,California,65,Riverside,33.92086,-116.85841
04/25/2014,AQS,60210003,3,1.5,ug/m3 LC,8,Willows-Colusa Street,1,100.0,88502,Acceptable PM2.5 AQI & Speciation Mass,731,Met-One BAM-1020 W/PM2.5 SCC,,,6,California,21,Glenn,39.53387,-122.190834
01/09/2014,AQS,60771002,4,15.5,ug/m3 LC,63,Stockton-Hazelton,1,100.0,88101,PM2.5 - Local Conditions,170,Met One BAM-1020 Mass Monitor w/VSCC,44700.0,"Stockton-Lodi, CA",6,California,77,San Joaquin,37.9507408985318,-121.268522670981
08/24/2014,AQS,60792004,1,4.6,ug/m3 LC,26,Mesa2,1,100.0,88101,PM2.5 - Local Conditions,170,Met One BAM-1020 Mass Monitor w/VSCC,42020.0,"San Luis Obispo-Paso Robles-Arroyo Grande, CA",6,California,79,San Luis Obispo,35.02083,-120.56388
01/11/2014,AQS,60670006,1,19.2,ug/m3 LC,70,Sacramento-Del Paso Manor,1,100.0,88101,PM2.5 - Local Conditions,145,R & P Model 2025 PM-2.5 Sequential Air Sampler w/VSCC,40900.0,"Sacramento--Roseville--Arden-Arcade, CA",6,California,67,Sacramento,38.6137790009202,-121.368014
03/18/2014,AQS,60290015,1,1.7,ug/m3 LC,9,Ridgecrest-California Ave,1,100.0,88101,PM2.5 - Local Conditions,118,R & P Model 2025 PM2.5 Sequential w/WINS,12540.0,"Bakersfield, CA",6,California,29,Kern,35.62109,-117.67296
12/23/2014,AQS,60392010,3,8.4,ug/m3 LC,47,Madera-City,1,100.0,88101,PM2.5 - Local Conditions,170,Met One BAM-1020 Mass Monitor w/VSCC,31460.0,"Madera, CA",6,California,39,Madera,36.953256,-120.034203
05/23/2014,AQS,60850005,3,7.3,ug/m3 LC,41,San Jose - Jackson,1,100.0,88101,PM2.5 - Local Conditions,170,Met One BAM-1020 Mass Monitor w/VSCC,41940.0,"San Jose-Sunnyvale-Santa Clara, CA",6,California,85,Santa Clara,37.348497,-121.894898
07/13/2014,AQS,60839000,1,5.9,ug/m3 LC,33,San Rafael Wilderness,1,100.0,88502,Acceptable PM2.5 AQI & Speciation Mass,707,"IMPROVE Module A with Cyclone Inlet-Teflon Filter, 2.2 sq. cm.",42200.0,"Santa Maria-Santa Barbara, CA",6,California,83,Santa Barbara,34.733888868675,-120.00834936928
02/10/2014,AQS,60670010,3,5.3,ug/m3 LC,29,Sacramento-1309 T Street,1,100.0,88502,Acceptable PM2.5 AQI & Speciation Mass,731,Met-One BAM-1020 W/PM2.5 SCC,40900.0,"Sacramento--Roseville--Arden-Arcade, CA",6,California,67,Sacramento,38.56844,-121.49311
09/02/2014,AQS,60772010,3,13.8,ug/m3 LC,60,Manteca,1,100.0,88101,PM2.5 - Local Conditions,170,Met One BAM-1020 Mass Monitor w/VSCC,44700.0,"Stockton-Lodi, CA",6,California,77,San Joaquin,37.793392,-121.247874
06/20/2014,AQS,60670006,3,6.4,ug/m3 LC,36,Sacramento-Del Paso Manor,1,100.0,88502,Acceptable PM2.5 AQI & Speciation Mass,731,Met-One BAM-1020 W/PM2.5 SCC,40900.0,"Sacramento--Roseville--Arden-Arcade, CA",6,California,67,Sacramento,38.6137790009202,-121.368014
07/31/2014,AQS,60290011,3,9.9,ug/m3 LC,52,Mojave,1,100.0,88101,PM2.5 - Local Conditions,170,Met One BAM-1020 Mass Monitor w/VSCC,12540.0,"Bakersfield, CA",6,California,29,Kern,35.0505513494936,-118.147293620967
01/11/2014,AQS,60690002,3,3.0,ug/m3 LC,17,Hollister,1,100.0,88101,PM2.5 - Local Conditions,170,Met One BAM-1020 Mass Monitor w/VSCC,41940.0,"San Jose-Sunnyvale-Santa Clara, CA",6,California,69,San Benito,36.8434250009057,-121.3621
04/29/2014,AQS,60550003,3,11.9,ug/m3 LC,56,Napa,1,100.0,88101,PM2.5 - Local Conditions,170,Met One BAM-1020 Mass Monitor w/VSCC,34900.0,"Napa, CA",6,California,55,Napa,38.310942,-122.296189
07/04/2014,AQS,60590007,3,39.4,ug/m3 LC,111,Anaheim,1,100.0,88502,Acceptable PM2.5 AQI & Speciation Mass,170,Met-one BAM-1020 W/PM2.5 SCC,31080.0,"Los Angeles-Long Beach-Anaheim, CA",6,California,59,Orange,33.83062,-117.93845
10/26/2014,AQS,60250005,1,5.8,ug/m3 LC,32,Calexico-Ethel Street,1,100.0,88101,PM2.5 - Local Conditions,145,R & P Model 2025 PM-2.5 Sequential Air Sampler w/VSCC,20940.0,"El Centro, CA",6,California,25,Imperial,32.67618,-115.48307
07/23/2014,AQS,61111004,3,4.3,ug/m3 LC,24,Ojai - East Ojai Ave,1,100.0,88101,PM2.5 - Local Conditions,170,Met One BAM-1020 Mass Monitor w/VSCC,37100.0,"Oxnard-Thousand Oaks-Ventura, CA",6,California,111,Ventura,34.44806,-119.2313
04/23/2014,AQS,60190011,2,3.7,ug/m3 LC,21,Fresno - Garland,1,100.0,88101,PM2.5 - Local Conditions,145,R & P Model 2025 PM-2.5 Sequential Air Sampler w/VSCC,23420.0,"Fresno, CA",6,California,19,Fresno,36.78538,-119.77321
01/03/2014,AQS,61112002,3,5.7,ug/m3 LC,32,Simi Valley-Cochran Street,1,100.0,88101,PM2.5 - Local Conditions,170,Met One BAM-1020 Mass Monitor w/VSCC,37100.0,"Oxnard-Thousand Oaks-Ventura, CA",6,California,111,Ventura,34.276316,-118.683685
01/02/2014,AQS,60772010,3,29.0,ug/m3 LC,88,Manteca,1,100.0,88101,PM2.5 - Local Conditions,170,Met One BAM-1020 Mass Monitor w/VSCC,44700.0,"Stockton-Lodi, CA",6,California,77,San Joaquin,37.793392,-121.247874
02/07/2014,AQS,60990006,3,12.8,ug/m3 LC,58,Turlock,1,100.0,88101,PM2.5 - Local Conditions,170,Met One BAM-1020 Mass Monitor w/VSCC,33700.0,"Modesto, CA",6,California,99,Stanislaus,37.488317,-120.836008
10/25/2014,AQS,60831008,3,7.0,ug/m3 LC,39,Santa Maria,1,100.0,88101,PM2.5 - Local Conditions,170,Met One BAM-1020 Mass Monitor w/VSCC,42200.0,"Santa Maria-Santa Barbara, CA",6,California,83,Santa Barbara,34.942872,-120.435611
05/27/2014,AQS,60792007,1,22.0,ug/m3 LC,75,CDF,1,100.0,88101,PM2.5 - Local Conditions,170,Met One BAM-1020 Mass Monitor w/VSCC,42020.0,"San Luis Obispo-Paso Robles-Arroyo Grande, CA",6,California,79,San Luis Obispo,35.0467300008874,-120.58777
07/04/2014,AQS,61130004,3,11.3,ug/m3 LC,55,Davis-UCD Campus,1,100.0,88502,Acceptable PM2.5 AQI & Speciation Mass,731,Met-One BAM-1020 W/PM2.5 SCC,40900.0,"Sacramento--Roseville--Arden-Arcade, CA",6,California,113,Yolo,38.53445,-121.7734
05/18/2014,AQS,60111002,3,9.6,ug/m3 LC,52,Colusa-Sunrise Blvd,1,100.0,88502,Acceptable PM2.5 AQI & Speciation Mass,731,Met-One BAM-1020 W/PM2.5 SCC,,,6,California,11,Colusa,39.18919,-121.99887
06/16/2014,AQS,60731002,2,11.8,ug/m3 LC,56,Escondido,1,100.0,88502,Acceptable PM2.5 AQI & Speciation Mass,170,Met-one BAM-1020 W/PM2.5 SCC,41740.0,"San Diego-Carlsbad, CA",6,California,73,San Diego,33.127769000864,-117.075086
01/29/2014,AQS,60130002,3,3.0,ug/m3 LC,17,Concord,1,100.0,88101,PM2.5 - Local Conditions,170,Met One BAM-1020 Mass Monitor w/VSCC,41860.0,"San Francisco-Oakland-Hayward, CA",6,California,13,Contra Costa,37.936013,-122.026154
07/07/2014,AQS,60710005,3,12.3,ug/m3 LC,57,Crestline,1,100.0,88502,Acceptable PM2.5 AQI & Speciation Mass,731,Met-One BAM-1020 W/PM2.5 SCC,40140.0,"Riverside-San Bernardino-Ontario, CA",6,California,71,San Bernardino,34.2431,-117.27235
12/22/2014,AQS,60670010,5,5.4,ug/m3 LC,30,Sacramento-1309 T Street,1,100.0,88502,Acceptable PM2.5 AQI & Speciation Mass,810,Met One SASS/SuperSASS Teflon,40900.0,"Sacramento--Roseville--Arden-Arcade, CA",6,California,67,Sacramento,38.56844,-121.49311
02/18/2014,AQS,60811001,3,4.9,ug/m3 LC,27,Redwood City,1,100.0,88101,PM2.5 - Local Conditions,170,Met One BAM-1020 Mass Monitor w/VSCC,41860.0,"San Francisco-Oakland-Hayward, CA",6,California,81,San Mateo,37.482934,-122.20337
01/14/2014,AQS,60290011,3,2.5,ug/m3 LC,14,Mojave,1,100.0,88101,PM2.5 - Local Conditions,170,Met One BAM-1020 Mass Monitor w/VSCC,12540.0,"Bakersfield, CA",6,California,29,Kern,35.0505513494936,-118.147293620967
02/19/2014,AQS,60831008,3,8.4,ug/m3 LC,47,Santa Maria,1,100.0,88101,PM2.5 - Local Conditions,170,Met One BAM-1020 Mass Monitor w/VSCC,42200.0,"Santa Maria-Santa Barbara, CA",6,California,83,Santa Barbara,34.942872,-120.435611
06/30/2014,AQS,60074001,3,8.2,ug/m3 LC,46,"TRAFFIC, RURAL PAVED ROAD",1,100.0,88502,Acceptable PM2.5 AQI & Speciation Mass,731,Met-One BAM-1020 W/PM2.5 SCC,17020.0,"Chico, CA",6,California,7,Butte,39.327563,-121.668811
01/12/2014,AQS,61112002,3,4.9,ug/m3 LC,27,Simi Valley-Cochran Street,1,100.0,88101,PM2.5 - Local Conditions,170,Met One BAM-1020 Mass Monitor w/VSCC,37100.0,"Oxnard-Thousand Oaks-Ventura, CA",6,California,111,Ventura,34.276316,-118.683685
03/25/2014,AQS,60570005,1,4.4,ug/m3 LC,24,Grass Valley-Litton Building,1,100.0,88101,PM2.5 - Local Conditions,117,R & P Model 2000 PM2.5 Sampler w/WINS,46020.0,"Truckee-Grass Valley, CA",6,California,57,Nevada,39.2334770009245,-121.055608
09/29/2014,AQS,60674001,1,7.1,ug/m3 LC,39,Sacramento Health Department-Stockton Blvd.,1,100.0,88101,PM2.5 - Local Conditions,145,R & P Model 2025 PM-2.5 Sequential Air Sampler w/VSCC,40900.0,"Sacramento--Roseville--Arden-Arcade, CA",6,California,67,Sacramento,38.556326,-121.458499
03/20/2014,AQS,60010011,3,13.7,ug/m3 LC,60,Oakland West,1,100.0,88101,PM2.5 - Local Conditions,170,Met One BAM-1020 Mass Monitor w/VSCC,41860.0,"San Francisco-Oakland-Hayward, CA",6,California,1,Alameda,37.814781,-122.282347
08/05/2014,AQS,60376012,3,9.2,ug/m3 LC,51,Santa Clarita,1,100.0,88502,Acceptable PM2.5 AQI & Speciation Mass,731,Met-One BAM-1020 W/PM2.5 SCC,31080.0,"Los Angeles-Long Beach-Anaheim, CA",6,California,37,Los Angeles,34.38344,-118.5284
06/25/2014,AQS,60250005,3,27.4,ug/m3 LC,85,Calexico-Ethel Street,1,100.0,88101,PM2.5 - Local Conditions,170,Met One BAM-1020 Mass Monitor w/VSCC,20940.0,"El Centro, CA",6,California,25,Imperial,32.67618,-115.48307
09/14/2014,AQS,60519000,1,3.2,ug/m3 LC,18,Hoover Wilderness,1,100.0,88502,Acceptable PM2.5 AQI & Speciation Mass,707,"IMPROVE Module A with Cyclone Inlet-Teflon Filter, 2.2 sq. cm.",,,6,California,51,Mono,38.0880230383045,-119.178068761591
04/07/2014,AQS,60731010,1,9.8,ug/m3 LC,52,San Diego - Beardsley Street,1,100.0,88101,PM2.5 - Local Conditions,145,R & P Model 2025 PM-2.5 Sequential Air Sampler w/VSCC,41740.0,"San Diego-Carlsbad, CA",6,California,73,San Diego,32.7014920008583,-117.149653
11/15/2014,AQS,60452002,3,15.2,ug/m3 LC,62,Willits-125 East Commercial Street,1,100.0,88101,PM2.5 - Local Conditions,170,Met One BAM-1020 Mass Monitor w/VSCC,46380.0,"Ukiah, CA",6,California,45,Mendocino,39.41174,-123.35264
09/11/2014,AQS,61111004,3,5.3,ug/m3 LC,29,Ojai - East Ojai Ave,1,100.0,88101,PM2.5 - Local Conditions,170,Met One BAM-1020 Mass Monitor w/VSCC,37100.0,"Oxnard-Thousand Oaks-Ventura, CA",6,California,111,Ventura,34.44806,-119.2313
05/04/2014,AQS,60798001,3,3.1,ug/m3 LC,17,Atascadero (original site),1,100.0,88101,PM2.5 - Local Conditions,170,Met One BAM-1020 Mass Monitor w/VSCC,42020.0,"San Luis Obispo-Paso Robles-Arroyo Grande, CA",6,California,79,San Luis Obispo,35.49158,-120.66804
07/03/2014,AQS,61030006,3,4.7,ug/m3 LC,26,RED BLUFF-310 S. MAIN STREET,1,100.0,88502,Acceptable PM2.5 AQI & Speciation Mass,170,Met-one BAM-1020 W/PM2.5 SCC,39780.0,"Red Bluff, CA",6,California,103,Tehama,40.1678004008256,-122.227138487452
06/05/2014,AQS,60711004,3,22.8,ug/m3 LC,77,Upland,1,100.0,88502,Acceptable PM2.5 AQI & Speciation Mass,731,Met-One BAM-1020 W/PM2.5 SCC,40140.0,"Riverside-San Bernardino-Ontario, CA",6,California,71,San Bernardino,34.10374,-117.62914
01/23/2014,AQS,60610006,1,12.4,ug/m3 LC,57,Roseville-N Sunrise Ave,1,100.0,88101,PM2.5 - Local Conditions,117,R & P Model 2000 PM2.5 Sampler w/WINS,40900.0,"Sacramento--Roseville--Arden-Arcade, CA",6,California,61,Placer,38.74643,-121.26498
05/10/2014,AQS,60659001,3,10.0,ug/m3 LC,53,Lake Elsinore,1,100.0,88502,Acceptable PM2.5 AQI & Speciation Mass,731,Met-One BAM-1020 W/PM2.5 SCC,40140.0,"Riverside-San Bernardino-Ontario, CA",6,California,65,Riverside,33.67649,-117.33098
02/06/2014,AQS,60651016,1,14.7,ug/m3 LC,61,Morongo Air Monitoring Station,1,100.0,88101,PM2.5 - Local Conditions,170,Met One BAM-1020 Mass Monitor w/VSCC,40140.0,"Riverside-San Bernardino-Ontario, CA",6,California,65,Riverside,33.9447129,-116.830074
05/07/2014,AQS,60750005,3,8.6,ug/m3 LC,48,San Francisco,1,100.0,88101,PM2.5 - Local Conditions,170,Met One BAM-1020 Mass Monitor w/VSCC,41860.0,"San Francisco-Oakland-Hayward, CA",6,California,75,San Francisco,37.765946,-122.399044
01/06/2014,AQS,60130002,3,22.9,ug/m3 LC,77,Concord,1,100.0,88101,PM2.5 - Local Conditions,170,Met One BAM-1020 Mass Monitor w/VSCC,41860.0,"San Francisco-Oakland-Hayward, CA",6,California,13,Contra Costa,37.936013,-122.026154
08/20/2014,AQS,60610003,1,4.0,ug/m3 LC,22,Auburn-Atwood,1,100.0,88101,PM2.5 - Local Conditions,170,Met One BAM-1020 Mass Monitor w/VSCC,40900.0,"Sacramento--Roseville--Arden-Arcade, CA",6,California,61,Placer,38.93568,-121.09959
05/25/2014,AQS,60658001,3,21.5,ug/m3 LC,74,Rubidoux,1,100.0,88502,Acceptable PM2.5 AQI & Speciation Mass,731,Met-One BAM-1020 W/PM2.5 SCC,40140.0,"Riverside-San Bernardino-Ontario, CA",6,California,65,Riverside,33.9995800008751,-117.41601
12/26/2014,AQS,60192009,3,4.1,ug/m3 LC,23,Tranquillity,1,100.0,88101,PM2.5 - Local Conditions,170,Met One BAM-1020 Mass Monitor w/VSCC,23420.0,"Fresno, CA",6,California,19,Fresno,36.6342250009037,-120.382331
06/17/2014,AQS,60658001,9,13.7,ug/m3 LC,60,Rubidoux,1,100.0,88502,Acceptable PM2.5 AQI & Speciation Mass,170,Met-one BAM-1020 W/PM2.5 SCC,40140.0,"Riverside-San Bernardino-Ontario, CA",6,California,65,Riverside,33.9995800008751,-117.41601
02/27/2014,AQS,60271003,3,2.5,ug/m3 LC,14,Keeler,1,100.0,88101,PM2.5 - Local Conditions,181,Thermo Scientific TEOM 1400 FDMS or 1405 8500C FDMS w/VSCC,13860.0,"Bishop, CA",6,California,27,Inyo,36.487823,-117.871036
08/25/2014,AQS,60792006,3,7.8,ug/m3 LC,43,San Luis Obispo,1,100.0,88101,PM2.5 - Local Conditions,170,Met One BAM-1020 Mass Monitor w/VSCC,42020.0,"San Luis Obispo-Paso Robles-Arroyo Grande, CA",6,California,79,San Luis Obispo,35.25651,-120.6693
02/21/2014,AQS,60370016,3,4.3,ug/m3 LC,24,Glendora,1,100.0,88502,Acceptable PM2.5 AQI & Speciation Mass,731,Met-One BAM-1020 W/PM2.5 SCC,31080.0,"Los Angeles-Long Beach-Anaheim, CA",6,California,37,Los Angeles,34.14435,-117.85036
01/21/2014,AQS,60090001,3,8.3,ug/m3 LC,46,San Andreas-Gold Strike Road,1,100.0,88101,PM2.5 - Local Conditions,170,Met One BAM-1020 Mass Monitor w/VSCC,,,6,California,9,Calaveras,38.20185,-120.680277
09/21/2014,AQS,60452002,3,6.9,ug/m3 LC,38,Willits-125 East Commercial Street,1,100.0,88101,PM2.5 - Local Conditions,170,Met One BAM-1020 Mass Monitor w/VSCC,46380.0,"Ukiah, CA",6,California,45,Mendocino,39.41174,-123.35264
04/20/2014,AQS,60550003,3,11.3,ug/m3 LC,55,Napa,1,100.0,88101,PM2.5 - Local Conditions,170,Met One BAM-1020 Mass Monitor w/VSCC,34900.0,"Napa, CA",6,California,55,Napa,38.310942,-122.296189
06/03/2014,AQS,60072002,3,6.9,ug/m3 LC,38,Paradise - Theater,1,100.0,88502,Acceptable PM2.5 AQI & Speciation Mass,731,Met-One BAM-1020 W/PM2.5 SCC,17020.0,"Chico, CA",6,California,7,Butte,39.77919,-121.59135
04/27/2014,AQS,60731011,3,5.8,ug/m3 LC,32,La Posta Reservation,1,100.0,88101,PM2.5 - Local Conditions,170,Met One BAM-1020 Mass Monitor w/VSCC,41740.0,"San Diego-Carlsbad, CA",6,California,73,San Diego,32.7252260005939,-116.365203426694
11/26/2014,AQS,60374004,3,21.9,ug/m3 LC,75,Long Beach (South),1,100.0,88502,Acceptable PM2.5 AQI & Speciation Mass,170,Met-one BAM-1020 W/PM2.5 SCC,31080.0,"Los Angeles-Long Beach-Anaheim, CA",6,California,37,Los Angeles,33.79236,-118.17533
12/31/2014,AQS,61072002,1,32.3,ug/m3 LC,94,Visalia-Church,1,100.0,88101,PM2.5 - Local Conditions,145,R & P Model 2025 PM-2.5 Sequential Air Sampler w/VSCC,47300.0,"Visalia-Porterville, CA",6,California,107,Tulare,36.3321793109462,-119.291227556039
12/31/2014,AQS,60712002,11,9.5,ug/m3 LC,52,Fontana,1,100.0,88502,Acceptable PM2.5 AQI & Speciation Mass,810,Met One SASS/SuperSASS Teflon,40140.0,"Riverside-San Bernardino-Ontario, CA",6,California,71,San Bernardino,34.10002,-117.49201
01/20/2014,AQS,60590007,3,22.5,ug/m3 LC,76,Anaheim,1,100.0,88502,Acceptable PM2.5 AQI & Speciation Mass,170,Met-one BAM-1020 W/PM2.5 SCC,31080.0,"Los Angeles-Long Beach-Anaheim, CA",6,California,59,Orange,33.83062,-117.93845
09/14/2014,AQS,60199000,1,3.5,ug/m3 LC,19,Kaiser Wilderness,1,100.0,88502,Acceptable PM2.5 AQI & Speciation Mass,707,"IMPROVE Module A with Cyclone Inlet-Teflon Filter, 2.2 sq. cm.",23420.0,"Fresno, CA",6,California,19,Fresno,37.2206398607598,-119.155556956851
02/22/2014,AQS,60530002,3,7.7,ug/m3 LC,43,Carmel Valley,1,100.0,88101,PM2.5 - Local Conditions,170,Met One BAM-1020 Mass Monitor w/VSCC,41500.0,"Salinas, CA",6,California,53,Monterey,36.4818700009023,-121.73333
01/04/2014,AQS,60530002,3,4.9,ug/m3 LC,27,Carmel Valley,1,100.0,88101,PM2.5 - Local Conditions,170,Met One BAM-1020 Mass Monitor w/VSCC,41500.0,"Salinas, CA",6,California,53,Monterey,36.4818700009023,-121.73333
11/29/2014,AQS,60190011,3,22.6,ug/m3 LC,76,Fresno - Garland,1,100.0,88101,PM2.5 - Local Conditions,170,Met One BAM-1020 Mass Monitor w/VSCC,23420.0,"Fresno, CA",6,California,19,Fresno,36.78538,-119.77321
10/25/2014,AQS,60659001,3,11.4,ug/m3 LC,55,Lake Elsinore,1,100.0,88502,Acceptable PM2.5 AQI & Speciation Mass,731,Met-One BAM-1020 W/PM2.5 SCC,40140.0,"Riverside-San Bernardino-Ontario, CA",6,California,65,Riverside,33.67649,-117.33098
06/21/2014,AQS,61010003,3,6.7,ug/m3 LC,37,Yuba City,1,100.0,88502,Acceptable PM2.5 AQI & Speciation Mass,731,Met-One BAM-1020 W/PM2.5 SCC,49700.0,"Yuba City, CA",6,California,101,Sutter,39.1387725442464,-121.618548986224
03/25/2014,AQS,60658005,1,24.8,ug/m3 LC,80,Mira Loma (Van Buren),1,100.0,88101,PM2.5 - Local Conditions,120,Andersen RAAS2.5-300 PM2.5 SEQ w/WINS,40140.0,"Riverside-San Bernardino-Ontario, CA",6,California,65,Riverside,33.996360000875,-117.4924
10/30/2014,AQS,61030006,3,6.9,ug/m3 LC,38,RED BLUFF-310 S. MAIN STREET,1,100.0,88502,Acceptable PM2.5 AQI & Speciation Mass,170,Met-one BAM-1020 W/PM2.5 SCC,39780.0,"Red Bluff, CA",6,California,103,Tehama,40.1678004008256,-122.227138487452
12/04/2014,AQS,60631006,1,10.5,ug/m3 LC,54,Quincy-N Church Street,1,100.0,88101,PM2.5 - Local Conditions,118,R & P Model 2025 PM2.5 Sequential w/WINS,,,6,California,63,Plumas,39.9395670009288,-120.944376
05/18/2014,AQS,60530008,3,2.1,ug/m3 LC,12,King City 2,1,100.0,88101,PM2.5 - Local Conditions,170,Met One BAM-1020 Mass Monitor w/VSCC,41500.0,"Salinas, CA",6,California,53,Monterey,36.2092860008996,-121.126371
07/29/2014,AQS,61110009,3,14.0,ug/m3 LC,60,Piru - Pacific,1,100.0,88101,PM2.5 - Local Conditions,170,Met One BAM-1020 Mass Monitor w/VSCC,37100.0,"Oxnard-Thousand Oaks-Ventura, CA",6,California,111,Ventura,34.404281,-118.80998
04/14/2014,AQS,60271003,1,9.0,ug/m3 LC,50,Keeler,1,100.0,88101,PM2.5 - Local Conditions,145,R & P Model 2025 PM-2.5 Sequential Air Sampler w/VSCC,13860.0,"Bishop, CA",6,California,27,Inyo,36.487823,-117.871036
12/06/2014,AQS,60792007,1,7.4,ug/m3 LC,41,CDF,1,100.0,88101,PM2.5 - Local Conditions,170,Met One BAM-1020 Mass Monitor w/VSCC,42020.0,"San Luis Obispo-Paso Robles-Arroyo Grande, CA",6,California,79,San Luis Obispo,35.0467300008874,-120.58777
08/28/2014,AQS,60773005,3,9.7,ug/m3 LC,52,Tracy-Airport,1,100.0,88502,Acceptable PM2.5 AQI & Speciation Mass,731,Met-One BAM-1020 W/PM2.5 SCC,44700.0,"Stockton-Lodi, CA",6,California,77,San Joaquin,37.682635,-121.442495
08/30/2014,AQS,60530008,3,1.5,ug/m3 LC,8,King City 2,1,100.0,88101,PM2.5 - Local Conditions,170,Met One BAM-1020 Mass Monitor w/VSCC,41500.0,"Salinas, CA",6,California,53,Monterey,36.2092860008996,-121.126371
08/04/2014,AQS,60731008,1,8.1,ug/m3 LC,45,Camp Pendleton,1,100.0,88502,Acceptable PM2.5 AQI & Speciation Mass,170,Met-one BAM-1020 W/PM2.5 SCC,41740.0,"San Diego-Carlsbad, CA",6,California,73,San Diego,33.217046,-117.396249
05/26/2014,AQS,60550003,3,11.1,ug/m3 LC,55,Napa,1,100.0,88101,PM2.5 - Local Conditions,170,Met One BAM-1020 Mass Monitor w/VSCC,34900.0,"Napa, CA",6,California,55,Napa,38.310942,-122.296189
11/20/2014,AQS,60250005,1,25.3,ug/m3 LC,81,Calexico-Ethel Street,1,100.0,88101,PM2.5 - Local Conditions,145,R & P Model 2025 PM-2.5 Sequential Air Sampler w/VSCC,20940.0,"El Centro, CA",6,California,25,Imperial,32.67618,-115.48307
02/16/2014,AQS,60711004,3,22.6,ug/m3 LC,76,Upland,1,100.0,88502,Acceptable PM2.5 AQI & Speciation Mass,731,Met-One BAM-1020 W/PM2.5 SCC,40140.0,"Riverside-San Bernardino-Ontario, CA",6,California,71,San Bernardino,34.10374,-117.62914
02/02/2014,AQS,60371103,1,5.4,ug/m3 LC,30,Los Angeles-North Main Street,1,100.0,88101,PM2.5 - Local Conditions,120,Andersen RAAS2.5-300 PM2.5 SEQ w/WINS,31080.0,"Los Angeles-Long Beach-Anaheim, CA",6,California,37,Los Angeles,34.0665900008759,-118.22688
06/28/2014,AQS,60970004,3,6.7,ug/m3 LC,37,Sebastopol,1,100.0,88101,PM2.5 - Local Conditions,170,Met One BAM-1020 Mass Monitor w/VSCC,42220.0,"Santa Rosa, CA",6,California,97,Sonoma,38.403765,-122.818294
02/13/2014,AQS,60150002,1,0.0,ug/m3 LC,0,Redwood NP,1,100.0,88502,Acceptable PM2.5 AQI & Speciation Mass,707,"IMPROVE Module A with Cyclone Inlet-Teflon Filter, 2.2 sq. cm.",18860.0,"Crescent City, CA",6,California,15,Del Norte,41.560952388,-124.083964246
06/20/2014,AQS,60731006,1,15.5,ug/m3 LC,63,Alpine,1,100.0,88502,Acceptable PM2.5 AQI & Speciation Mass,170,Met-one BAM-1020 W/PM2.5 SCC,41740.0,"San Diego-Carlsbad, CA",6,California,73,San Diego,32.8423180008601,-116.768293
03/28/2014,AQS,60070008,3,4.1,ug/m3 LC,23,Chico-East Avenue,1,100.0,88502,Acceptable PM2.5 AQI & Speciation Mass,731,Met-One BAM-1020 W/PM2.5 SCC,17020.0,"Chico, CA",6,California,7,Butte,39.76168,-121.84047
10/25/2014,AQS,60670006,1,3.7,ug/m3 LC,21,Sacramento-Del Paso Manor,1,100.0,88101,PM2.5 - Local Conditions,145,R & P Model 2025 PM-2.5 Sequential Air Sampler w/VSCC,40900.0,"Sacramento--Roseville--Arden-Arcade, CA",6,California,67,Sacramento,38.6137790009202,-121.368014
07/18/2014,AQS,60659001,3,12.4,ug/m3 LC,57,Lake Elsinore,1,100.0,88502,Acceptable PM2.5 AQI & Speciation Mass,731,Met-One BAM-1020 W/PM2.5 SCC,40140.0,"Riverside-San Bernardino-Ontario, CA",6,California,65,Riverside,33.67649,-117.33098
04/14/2014,AQS,60195025,1,11.3,ug/m3 LC,55,Fresno-Pacific,1,100.0,88101,PM2.5 - Local Conditions,118,R & P Model 2025 PM2.5 Sequential w/WINS,23420.0,"Fresno, CA",6,California,19,Fresno,36.72639,-119.733
08/06/2014,AQS,60374004,3,7.0,ug/m3 LC,39,Long Beach (South),1,100.0,88502,Acceptable PM2.5 AQI & Speciation Mass,170,Met-one BAM-1020 W/PM2.5 SCC,31080.0,"Los Angeles-Long Beach-Anaheim, CA",6,California,37,Los Angeles,33.79236,-118.17533
02/08/2014,AQS,61113001,3,5.6,ug/m3 LC,31,El Rio-Rio Mesa School #2,1,100.0,88101,PM2.5 - Local Conditions,170,Met One BAM-1020 Mass Monitor w/VSCC,37100.0,"Oxnard-Thousand Oaks-Ventura, CA",6,California,111,Ventura,34.25239,-119.143182
02/09/2014,AQS,60870007,3,3.7,ug/m3 LC,21,Santa Cruz,1,100.0,88101,PM2.5 - Local Conditions,170,Met One BAM-1020 Mass Monitor w/VSCC,42100.0,"Santa Cruz-Watsonville, CA",6,California,87,Santa Cruz,36.983320000907,-121.98822
01/16/2014,AQS,60311004,3,50.9,ug/m3 LC,139,Hanford-Irwin,1,100.0,88101,PM2.5 - Local Conditions,170,Met One BAM-1020 Mass Monitor w/VSCC,25260.0,"Hanford-Corcoran, CA",6,California,31,Kings,36.31567,-119.643447
11/12/2014,AQS,60010007,3,7.1,ug/m3 LC,39,Livermore,1,100.0,88101,PM2.5 - Local Conditions,170,Met One BAM-1020 Mass Monitor w/VSCC,41860.0,"San Francisco-Oakland-Hayward, CA",6,California,1,Alameda,37.687526,-121.784217
11/10/2014,AQS,60179001,1,2.2,ug/m3 LC,12,Lake Tahoe Community College,1,100.0,88502,Acceptable PM2.5 AQI & Speciation Mass,707,"IMPROVE Module A with Cyclone Inlet-Teflon Filter, 2.2 sq. cm.",40900.0,"Sacramento--Roseville--Arden-Arcade, CA",6,California,17,El Dorado,38.9248,-119.97
01/05/2014,AQS,60771002,4,31.2,ug/m3 LC,92,Stockton-Hazelton,1,100.0,88101,PM2.5 - Local Conditions,170,Met One BAM-1020 Mass Monitor w/VSCC,44700.0,"Stockton-Lodi, CA",6,California,77,San Joaquin,37.9507408985318,-121.268522670981
12/16/2014,AQS,60310004,1,14.5,ug/m3 LC,61,Corcoran-Patterson,1,100.0,88101,PM2.5 - Local Conditions,145,R & P Model 2025 PM-2.5 Sequential Air Sampler w/VSCC,25260.0,"Hanford-Corcoran, CA",6,California,31,Kings,36.102244,-119.56565
05/27/2014,AQS,60531003,3,8.1,ug/m3 LC,45,Salinas 3,1,100.0,88101,PM2.5 - Local Conditions,170,Met One BAM-1020 Mass Monitor w/VSCC,41500.0,"Salinas, CA",6,California,53,Monterey,36.6942610009043,-121.623271
04/19/2014,AQS,60731011,3,7.5,ug/m3 LC,42,La Posta Reservation,1,100.0,88101,PM2.5 - Local Conditions,170,Met One BAM-1020 Mass Monitor w/VSCC,41740.0,"San Diego-Carlsbad, CA",6,California,73,San Diego,32.7252260005939,-116.365203426694
10/29/2014,AQS,60450006,3,1.9,ug/m3 LC,11,Ukiah-Library,1,100.0,88101,PM2.5 - Local Conditions,170,Met One BAM-1020 Mass Monitor w/VSCC,46380.0,"Ukiah, CA",6,California,45,Mendocino,39.15047,-123.20655
11/03/2014,AQS,60970004,3,4.9,ug/m3 LC,27,Sebastopol,1,100.0,88101,PM2.5 - Local Conditions,170,Met One BAM-1020 Mass Monitor w/VSCC,42220.0,"Santa Rosa, CA",6,California,97,Sonoma,38.403765,-122.818294
02/10/2014,AQS,60659001,3,17.3,ug/m3 LC,66,Lake Elsinore,1,100.0,88502,Acceptable PM2.5 AQI & Speciation Mass,731,Met-One BAM-1020 W/PM2.5 SCC,40140.0,"Riverside-San Bernardino-Ontario, CA",6,California,65,Riverside,33.67649,-117.33098
04/29/2014,AQS,60670012,3,6.1,ug/m3 LC,34,Folsom-Natoma St.,1,100.0,88101,PM2.5 - Local Conditions,170,Met One BAM-1020 Mass Monitor w/VSCC,40900.0,"Sacramento--Roseville--Arden-Arcade, CA",6,California,67,Sacramento,38.683304,-121.164457
03/05/2014,AQS,60230006,1,8.5,ug/m3 LC,47,Hoopa Valley Reservation,1,100.0,88101,PM2.5 - Local Conditions,581,Thermo Scientific 1405-F FDMS w/VSCC,21700.0,"Eureka-Arcata-Fortuna, CA",6,California,23,Humboldt,41.0471169849594,-123.67523342371
12/25/2014,AQS,60670012,3,3.4,ug/m3 LC,19,Folsom-Natoma St.,1,100.0,88101,PM2.5 - Local Conditions,170,Met One BAM-1020 Mass Monitor w/VSCC,40900.0,"Sacramento--Roseville--Arden-Arcade, CA",6,California,67,Sacramento,38.683304,-121.164457
11/19/2014,AQS,60792006,3,2.8,ug/m3 LC,16,San Luis Obispo,1,100.0,88101,PM2.5 - Local Conditions,170,Met One BAM-1020 Mass Monitor w/VSCC,42020.0,"San Luis Obispo-Paso Robles-Arroyo Grande, CA",6,California,79,San Luis Obispo,35.25651,-120.6693
04/29/2014,AQS,60731016,1,6.6,ug/m3 LC,37,San Diego - Kearny Villa Rd.,1,100.0,88101,PM2.5 - Local Conditions,145,R & P Model 2025 PM-2.5 Sequential Air Sampler w/VSCC,41740.0,"San Diego-Carlsbad, CA",6,California,73,San Diego,32.8457090008602,-117.123964
03/04/2014,AQS,60670012,3,2.7,ug/m3 LC,15,Folsom-Natoma St.,1,100.0,88101,PM2.5 - Local Conditions,170,Met One BAM-1020 Mass Monitor w/VSCC,40900.0,"Sacramento--Roseville--Arden-Arcade, CA",6,California,67,Sacramento,38.683304,-121.164457
12/07/2014,AQS,60658001,11,14.0,ug/m3 LC,60,Rubidoux,1,100.0,88502,Acceptable PM2.5 AQI & Speciation Mass,810,Met One SASS/SuperSASS Teflon,40140.0,"Riverside-San Bernardino-Ontario, CA",6,California,65,Riverside,33.9995800008751,-117.41601
10/06/2014,AQS,60792007,1,10.6,ug/m3 LC,54,CDF,1,100.0,88101,PM2.5 - Local Conditions,170,Met One BAM-1020 Mass Monitor w/VSCC,42020.0,"San Luis Obispo-Paso Robles-Arroyo Grande, CA",6,California,79,San Luis Obispo,35.0467300008874,-120.58777
10/04/2014,AQS,60231005,1,5.8,ug/m3 LC,32,Humboldt Hill,1,100.0,88502,Acceptable PM2.5 AQI & Speciation Mass,195,GRIMM EDM Model 180 with naphion dryer,21700.0,"Eureka-Arcata-Fortuna, CA",6,California,23,Humboldt,40.71528,-124.20139
02/15/2014,AQS,60990006,3,20.5,ug/m3 LC,72,Turlock,1,100.0,88101,PM2.5 - Local Conditions,170,Met One BAM-1020 Mass Monitor w/VSCC,33700.0,"Modesto, CA",6,California,99,Stanislaus,37.488317,-120.836008
09/29/2014,AQS,60392010,3,7.3,ug/m3 LC,41,Madera-City,1,100.0,88101,PM2.5 - Local Conditions,170,Met One BAM-1020 Mass Monitor w/VSCC,31460.0,"Madera, CA",6,California,39,Madera,36.953256,-120.034203
09/10/2014,AQS,60111002,3,12.6,ug/m3 LC,58,Colusa-Sunrise Blvd,1,100.0,88502,Acceptable PM2.5 AQI & Speciation Mass,731,Met-One BAM-1020 W/PM2.5 SCC,,,6,California,11,Colusa,39.18919,-121.99887
08/27/2014,AQS,61110007,3,8.0,ug/m3 LC,44,Thousand Oaks,1,100.0,88101,PM2.5 - Local Conditions,170,Met One BAM-1020 Mass Monitor w/VSCC,37100.0,"Oxnard-Thousand Oaks-Ventura, CA",6,California,111,Ventura,34.210169,-118.870509
09/08/2014,AQS,60199000,1,3.3,ug/m3 LC,18,Kaiser Wilderness,1,100.0,88502,Acceptable PM2.5 AQI & Speciation Mass,707,"IMPROVE Module A with Cyclone Inlet-Teflon Filter, 2.2 sq. cm.",23420.0,"Fresno, CA",6,California,19,Fresno,37.2206398607598,-119.155556956851
04/22/2014,AQS,60970004,3,3.8,ug/m3 LC,21,Sebastopol,1,100.0,88101,PM2.5 - Local Conditions,170,Met One BAM-1020 Mass Monitor w/VSCC,42220.0,"Santa Rosa, CA",6,California,97,Sonoma,38.403765,-122.818294
04/17/2014,AQS,60850005,5,14.2,ug/m3 LC,61,San Jose - Jackson,1,100.0,88502,Acceptable PM2.5 AQI & Speciation Mass,810,Met One SASS/SuperSASS Teflon,41940.0,"San Jose-Sunnyvale-Santa Clara, CA",6,California,85,Santa Clara,37.348497,-121.894898
09/05/2014,AQS,60771002,4,15.6,ug/m3 LC,63,Stockton-Hazelton,1,100.0,88101,PM2.5 - Local Conditions,170,Met One BAM-1020 Mass Monitor w/VSCC,44700.0,"Stockton-Lodi, CA",6,California,77,San Joaquin,37.9507408985318,-121.268522670981
06/10/2014,AQS,61112002,4,17.4,ug/m3 LC,66,Simi Valley-Cochran Street,1,100.0,88101,PM2.5 - Local Conditions,170,Met One BAM-1020 Mass Monitor w/VSCC,37100.0,"Oxnard-Thousand Oaks-Ventura, CA",6,California,111,Ventura,34.276316,-118.683685
08/07/2014,AQS,60470003,3,21.1,ug/m3 LC,73,Merced-Coffee,1,100.0,88101,PM2.5 - Local Conditions,170,Met One BAM-1020 Mass Monitor w/VSCC,32900.0,"Merced, CA",6,California,47,Merced,37.281853,-120.433671
01/19/2014,AQS,60658001,9,9.7,ug/m3 LC,52,Rubidoux,1,100.0,88502,Acceptable PM2.5 AQI & Speciation Mass,170,Met-one BAM-1020 W/PM2.5 SCC,40140.0,"Riverside-San Bernardino-Ontario, CA",6,California,65,Riverside,33.9995800008751,-117.41601
04/02/2014,AQS,60371002,3,8.7,ug/m3 LC,48,Burbank,1,100.0,88502,Acceptable PM2.5 AQI & Speciation Mass,170,Met-one BAM-1020 W/PM2.5 SCC,31080.0,"Los Angeles-Long Beach-Anaheim, CA",6,California,37,Los Angeles,34.17605,-118.31712
01/11/2014,AQS,60850002,3,8.6,ug/m3 LC,48,Gilroy,1,100.0,88101,PM2.5 - Local Conditions,170,Met One BAM-1020 Mass Monitor w/VSCC,41940.0,"San Jose-Sunnyvale-Santa Clara, CA",6,California,85,Santa Clara,36.999571,-121.574684
02/13/2014,AQS,60839000,1,1.1,ug/m3 LC,6,San Rafael Wilderness,1,100.0,88502,Acceptable PM2.5 AQI & Speciation Mass,707,"IMPROVE Module A with Cyclone Inlet-Teflon Filter, 2.2 sq. cm.",42200.0,"Santa Maria-Santa Barbara, CA",6,California,83,Santa Barbara,34.733888868675,-120.00834936928
03/07/2014,AQS,61130004,3,0.4,ug/m3 LC,2,Davis-UCD Campus,1,100.0,88502,Acceptable PM2.5 AQI & Speciation Mass,731,Met-One BAM-1020 W/PM2.5 SCC,40900.0,"Sacramento--Roseville--Arden-Arcade, CA",6,California,113,Yolo,38.53445,-121.7734
09/28/2014,AQS,60792004,1,6.6,ug/m3 LC,37,Mesa2,1,100.0,88101,PM2.5 - Local Conditions,170,Met One BAM-1020 Mass Monitor w/VSCC,42020.0,"San Luis Obispo-Paso Robles-Arroyo Grande, CA",6,California,79,San Luis Obispo,35.02083,-120.56388
05/19/2014,AQS,60531003,3,1.0,ug/m3 LC,6,Salinas 3,1,100.0,88101,PM2.5 - Local Conditions,170,Met One BAM-1020 Mass Monitor w/VSCC,41500.0,"Salinas, CA",6,California,53,Monterey,36.6942610009043,-121.623271
09/19/2014,AQS,60292009,3,5.6,ug/m3 LC,31,Lebec,1,100.0,88502,Acceptable PM2.5 AQI & Speciation Mass,731,Met-One BAM-1020 W/PM2.5 SCC,12540.0,"Bakersfield, CA",6,California,29,Kern,34.841567,-118.860588
01/05/2014,AQS,60010007,3,14.3,ug/m3 LC,61,Livermore,1,100.0,88101,PM2.5 - Local Conditions,170,Met One BAM-1020 Mass Monitor w/VSCC,41860.0,"San Francisco-Oakland-Hayward, CA",6,California,1,Alameda,37.687526,-121.784217
10/25/2014,AQS,60190011,1,8.4,ug/m3 LC,47,Fresno - Garland,1,100.0,88101,PM2.5 - Local Conditions,145,R & P Model 2025 PM-2.5 Sequential Air Sampler w/VSCC,23420.0,"Fresno, CA",6,California,19,Fresno,36.78538,-119.77321
02/05/2014,AQS,61112002,3,11.9,ug/m3 LC,56,Simi Valley-Cochran Street,1,100.0,88101,PM2.5 - Local Conditions,170,Met One BAM-1020 Mass Monitor w/VSCC,37100.0,"Oxnard-Thousand Oaks-Ventura, CA",6,California,111,Ventura,34.276316,-118.683685
09/26/2014,AQS,60792006,3,5.3,ug/m3 LC,29,San Luis Obispo,1,100.0,88101,PM2.5 - Local Conditions,170,Met One BAM-1020 Mass Monitor w/VSCC,42020.0,"San Luis Obispo-Paso Robles-Arroyo Grande, CA",6,California,79,San Luis Obispo,35.25651,-120.6693
05/25/2014,AQS,60731002,2,8.4,ug/m3 LC,47,Escondido,1,100.0,88502,Acceptable PM2.5 AQI & Speciation Mass,170,Met-one BAM-1020 W/PM2.5 SCC,41740.0,"San Diego-Carlsbad, CA",6,California,73,San Diego,33.127769000864,-117.075086
07/17/2014,AQS,60831008,3,6.9,ug/m3 LC,38,Santa Maria,1,100.0,88101,PM2.5 - Local Conditions,170,Met One BAM-1020 Mass Monitor w/VSCC,42200.0,"Santa Maria-Santa Barbara, CA",6,California,83,Santa Barbara,34.942872,-120.435611
11/07/2014,AQS,60250005,4,12.4,ug/m3 LC,57,Calexico-Ethel Street,1,100.0,88101,PM2.5 - Local Conditions,170,Met One BAM-1020 Mass Monitor w/VSCC,20940.0,"El Centro, CA",6,California,25,Imperial,32.67618,-115.48307
05/19/2014,AQS,61111004,3,8.0,ug/m3 LC,44,Ojai - East Ojai Ave,1,100.0,88101,PM2.5 - Local Conditions,170,Met One BAM-1020 Mass Monitor w/VSCC,37100.0,"Oxnard-Thousand Oaks-Ventura, CA",6,California,111,Ventura,34.44806,-119.2313
12/16/2014,AQS,61110007,3,9.9,ug/m3 LC,52,Thousand Oaks,1,100.0,88101,PM2.5 - Local Conditions,170,Met One BAM-1020 Mass Monitor w/VSCC,37100.0,"Oxnard-Thousand Oaks-Ventura, CA",6,California,111,Ventura,34.210169,-118.870509
09/12/2014,AQS,61010003,1,9.7,ug/m3 LC,52,Yuba City,1,100.0,88101,PM2.5 - Local Conditions,145,R & P Model 2025 PM-2.5 Sequential Air Sampler w/VSCC,49700.0,"Yuba City, CA",6,California,101,Sutter,39.1387725442464,-121.618548986224
10/27/2014,AQS,60130002,3,4.8,ug/m3 LC,27,Concord,1,100.0,88101,PM2.5 - Local Conditions,170,Met One BAM-1020 Mass Monitor w/VSCC,41860.0,"San Francisco-Oakland-Hayward, CA",6,California,13,Contra Costa,37.936013,-122.026154
04/28/2014,AQS,60250005,4,14.3,ug/m3 LC,61,Calexico-Ethel Street,1,100.0,88101,PM2.5 - Local Conditions,170,Met One BAM-1020 Mass Monitor w/VSCC,20940.0,"El Centro, CA",6,California,25,Imperial,32.67618,-115.48307
01/20/2014,AQS,60530002,3,7.9,ug/m3 LC,44,Carmel Valley,1,100.0,88101,PM2.5 - Local Conditions,170,Met One BAM-1020 Mass Monitor w/VSCC,41500.0,"Salinas, CA",6,California,53,Monterey,36.4818700009023,-121.73333
11/25/2014,AQS,60711004,3,8.4,ug/m3 LC,47,Upland,1,100.0,88502,Acceptable PM2.5 AQI & Speciation Mass,731,Met-One BAM-1020 W/PM2.5 SCC,40140.0,"Riverside-San Bernardino-Ontario, CA",6,California,71,San Bernardino,34.10374,-117.62914
04/02/2014,AQS,60371201,1,2.7,ug/m3 LC,15,Reseda,1,100.0,88101,PM2.5 - Local Conditions,120,Andersen RAAS2.5-300 PM2.5 SEQ w/WINS,31080.0,"Los Angeles-Long Beach-Anaheim, CA",6,California,37,Los Angeles,34.19925,-118.53276
02/10/2014,AQS,60658001,1,24.5,ug/m3 LC,80,Rubidoux,1,100.0,88101,PM2.5 - Local Conditions,120,Andersen RAAS2.5-300 PM2.5 SEQ w/WINS,40140.0,"Riverside-San Bernardino-Ontario, CA",6,California,65,Riverside,33.9995800008751,-117.41601
08/18/2014,AQS,60010012,3,5.4,ug/m3 LC,30,Laney College,1,100.0,88101,PM2.5 - Local Conditions,170,Met One BAM-1020 Mass Monitor w/VSCC,41860.0,"San Francisco-Oakland-Hayward, CA",6,California,1,Alameda,37.793624,-122.263376
08/14/2014,AQS,60711004,3,16.9,ug/m3 LC,66,Upland,1,100.0,88502,Acceptable PM2.5 AQI & Speciation Mass,731,Met-One BAM-1020 W/PM2.5 SCC,40140.0,"Riverside-San Bernardino-Ontario, CA",6,California,71,San Bernardino,34.10374,-117.62914
12/16/2014,AQS,60832011,1,5.0,ug/m3 LC,28,Goleta,1,100.0,88101,PM2.5 - Local Conditions,170,Met One BAM-1020 Mass Monitor w/VSCC,42200.0,"Santa Maria-Santa Barbara, CA",6,California,83,Santa Barbara,34.4455100008805,-119.8284
12/13/2014,AQS,60731010,1,8.3,ug/m3 LC,46,San Diego - Beardsley Street,1,100.0,88101,PM2.5 - Local Conditions,145,R & P Model 2025 PM-2.5 Sequential Air Sampler w/VSCC,41740.0,"San Diego-Carlsbad, CA",6,California,73,San Diego,32.7014920008583,-117.149653
06/13/2014,AQS,60010009,3,10.6,ug/m3 LC,54,Oakland,1,100.0,88101,PM2.5 - Local Conditions,170,Met One BAM-1020 Mass Monitor w/VSCC,41860.0,"San Francisco-Oakland-Hayward, CA",6,California,1,Alameda,37.743065,-122.169935
06/06/2014,AQS,61072002,3,13.5,ug/m3 LC,59,Visalia-Church,1,100.0,88502,Acceptable PM2.5 AQI & Speciation Mass,731,Met-One BAM-1020 W/PM2.5 SCC,47300.0,"Visalia-Porterville, CA",6,California,107,Tulare,36.3321793109462,-119.291227556039
03/22/2014,AQS,61112002,3,14.2,ug/m3 LC,61,Simi Valley-Cochran Street,1,100.0,88101,PM2.5 - Local Conditions,170,Met One BAM-1020 Mass Monitor w/VSCC,37100.0,"Oxnard-Thousand Oaks-Ventura, CA",6,California,111,Ventura,34.276316,-118.683685
12/23/2014,AQS,60470003,3,10.2,ug/m3 LC,53,Merced-Coffee,1,100.0,88101,PM2.5 - Local Conditions,170,Met One BAM-1020 Mass Monitor w/VSCC,32900.0,"Merced, CA",6,California,47,Merced,37.281853,-120.433671
03/19/2014,AQS,60110007,1,3.3,ug/m3 LC,18,Cortina Indian Rancheria,1,100.0,88101,PM2.5 - Local Conditions,170,Met One BAM-1020 Mass Monitor w/VSCC,,,6,California,11,Colusa,39.0212210009231,-122.281803
01/03/2014,AQS,60670010,3,21.3,ug/m3 LC,74,Sacramento-1309 T Street,1,100.0,88502,Acceptable PM2.5 AQI & Speciation Mass,731,Met-One BAM-1020 W/PM2.5 SCC,40900.0,"Sacramento--Roseville--Arden-Arcade, CA",6,California,67,Sacramento,38.56844,-121.49311
01/26/2014,AQS,60950004,4,16.0,ug/m3 LC,64,Vallejo,1,100.0,88101,PM2.5 - Local Conditions,170,Met One BAM-1020 Mass Monitor w/VSCC,46700.0,"Vallejo-Fairfield, CA",6,California,95,Solano,38.102507,-122.237976
10/14/2014,AQS,60250005,4,12.5,ug/m3 LC,57,Calexico-Ethel Street,1,100.0,88101,PM2.5 - Local Conditions,170,Met One BAM-1020 Mass Monitor w/VSCC,20940.0,"El Centro, CA",6,California,25,Imperial,32.67618,-115.48307
12/04/2014,AQS,60871005,3,1.1,ug/m3 LC,6,San Lorenzo Valley Middle School,1,100.0,88101,PM2.5 - Local Conditions,170,Met One BAM-1020 Mass Monitor w/VSCC,42100.0,"Santa Cruz-Watsonville, CA",6,California,87,Santa Cruz,37.0631500009077,-122.083092
08/17/2014,AQS,61111004,3,5.8,ug/m3 LC,32,Ojai - East Ojai Ave,1,100.0,88101,PM2.5 - Local Conditions,170,Met One BAM-1020 Mass Monitor w/VSCC,37100.0,"Oxnard-Thousand Oaks-Ventura, CA",6,California,111,Ventura,34.44806,-119.2313
09/03/2014,AQS,60792004,1,4.9,ug/m3 LC,27,Mesa2,1,100.0,88101,PM2.5 - Local Conditions,170,Met One BAM-1020 Mass Monitor w/VSCC,42020.0,"San Luis Obispo-Paso Robles-Arroyo Grande, CA",6,California,79,San Luis Obispo,35.02083,-120.56388
10/08/2014,AQS,60251003,1,4.0,ug/m3 LC,22,El Centro-9th Street,1,100.0,88101,PM2.5 - Local Conditions,118,R & P Model 2025 PM2.5 Sequential w/WINS,20940.0,"El Centro, CA",6,California,25,Imperial,32.79222,-115.56306
04/27/2014,AQS,60271003,3,4.3,ug/m3 LC,24,Keeler,1,100.0,88101,PM2.5 - Local Conditions,181,Thermo Scientific TEOM 1400 FDMS or 1405 8500C FDMS w/VSCC,13860.0,"Bishop, CA",6,California,27,Inyo,36.487823,-117.871036
11/29/2014,AQS,60950004,4,9.4,ug/m3 LC,52,Vallejo,1,100.0,88101,PM2.5 - Local Conditions,170,Met One BAM-1020 Mass Monitor w/VSCC,46700.0,"Vallejo-Fairfield, CA",6,California,95,Solano,38.102507,-122.237976
01/28/2014,AQS,60371002,1,25.7,ug/m3 LC,82,Burbank,1,100.0,88101,PM2.5 - Local Conditions,120,Andersen RAAS2.5-300 PM2.5 SEQ w/WINS,31080.0,"Los Angeles-Long Beach-Anaheim, CA",6,California,37,Los Angeles,34.17605,-118.31712
12/08/2014,AQS,60531003,3,2.0,ug/m3 LC,11,Salinas 3,1,100.0,88101,PM2.5 - Local Conditions,170,Met One BAM-1020 Mass Monitor w/VSCC,41500.0,"Salinas, CA",6,California,53,Monterey,36.6942610009043,-121.623271
09/02/2014,AQS,60990005,5,16.8,ug/m3 LC,65,Modesto-14th Street,1,100.0,88502,Acceptable PM2.5 AQI & Speciation Mass,810,Met One SASS/SuperSASS Teflon,33700.0,"Modesto, CA",6,California,99,Stanislaus,37.642165,-120.994212
02/27/2014,AQS,61010003,3,3.3,ug/m3 LC,18,Yuba City,1,100.0,88502,Acceptable PM2.5 AQI & Speciation Mass,731,Met-One BAM-1020 W/PM2.5 SCC,49700.0,"Yuba City, CA",6,California,101,Sutter,39.1387725442464,-121.618548986224
12/02/2014,AQS,61110007,3,2.9,ug/m3 LC,16,Thousand Oaks,1,100.0,88101,PM2.5 - Local Conditions,170,Met One BAM-1020 Mass Monitor w/VSCC,37100.0,"Oxnard-Thousand Oaks-Ventura, CA",6,California,111,Ventura,34.210169,-118.870509
08/02/2014,AQS,60074001,3,10.5,ug/m3 LC,54,"TRAFFIC, RURAL PAVED ROAD",1,100.0,88502,Acceptable PM2.5 AQI & Speciation Mass,731,Met-One BAM-1020 W/PM2.5 SCC,17020.0,"Chico, CA",6,California,7,Butte,39.327563,-121.668811
08/09/2014,AQS,60710005,3,11.2,ug/m3 LC,55,Crestline,1,100.0,88502,Acceptable PM2.5 AQI & Speciation Mass,731,Met-One BAM-1020 W/PM2.5 SCC,40140.0,"Riverside-San Bernardino-Ontario, CA",6,California,71,San Bernardino,34.2431,-117.27235
04/14/2014,AQS,60190011,5,11.1,ug/m3 LC,55,Fresno - Garland,1,100.0,88502,Acceptable PM2.5 AQI & Speciation Mass,810,Met One SASS/SuperSASS Teflon,23420.0,"Fresno, CA",6,California,19,Fresno,36.78538,-119.77321
10/10/2014,AQS,61111004,3,9.7,ug/m3 LC,52,Ojai - East Ojai Ave,1,100.0,88101,PM2.5 - Local Conditions,170,Met One BAM-1020 Mass Monitor w/VSCC,37100.0,"Oxnard-Thousand Oaks-Ventura, CA",6,California,111,Ventura,34.44806,-119.2313
11/29/2014,AQS,60292009,3,1.5,ug/m3 LC,8,Lebec,1,100.0,88502,Acceptable PM2.5 AQI & Speciation Mass,731,Met-One BAM-1020 W/PM2.5 SCC,12540.0,"Bakersfield, CA",6,California,29,Kern,34.841567,-118.860588
11/04/2014,AQS,60251003,1,2.7,ug/m3 LC,15,El Centro-9th Street,1,100.0,88101,PM2.5 - Local Conditions,118,R & P Model 2025 PM2.5 Sequential w/WINS,20940.0,"El Centro, CA",6,California,25,Imperial,32.79222,-115.56306
11/18/2014,AQS,60290014,1,20.5,ug/m3 LC,72,Bakersfield-California,1,100.0,88101,PM2.5 - Local Conditions,145,R & P Model 2025 PM-2.5 Sequential Air Sampler w/VSCC,12540.0,"Bakersfield, CA",6,California,29,Kern,35.356615,-119.062613
04/29/2014,AQS,60311004,3,13.7,ug/m3 LC,60,Hanford-Irwin,1,100.0,88101,PM2.5 - Local Conditions,170,Met One BAM-1020 Mass Monitor w/VSCC,25260.0,"Hanford-Corcoran, CA",6,California,31,Kings,36.31567,-119.643447
11/24/2014,AQS,60230006,1,10.4,ug/m3 LC,53,Hoopa Valley Reservation,1,100.0,88101,PM2.5 - Local Conditions,581,Thermo Scientific 1405-F FDMS w/VSCC,21700.0,"Eureka-Arcata-Fortuna, CA",6,California,23,Humboldt,41.0471169849594,-123.67523342371
01/22/2014,AQS,60731006,1,7.7,ug/m3 LC,43,Alpine,1,100.0,88101,PM2.5 - Local Conditions,170,Met One BAM-1020 Mass Monitor w/VSCC,41740.0,"San Diego-Carlsbad, CA",6,California,73,San Diego,32.8423180008601,-116.768293
10/11/2014,AQS,60771002,3,7.9,ug/m3 LC,44,Stockton-Hazelton,1,100.0,88101,PM2.5 - Local Conditions,170,Met One BAM-1020 Mass Monitor w/VSCC,44700.0,"Stockton-Lodi, CA",6,California,77,San Joaquin,37.9507408985318,-121.268522670981
09/10/2014,AQS,60530002,3,9.3,ug/m3 LC,51,Carmel Valley,1,100.0,88101,PM2.5 - Local Conditions,170,Met One BAM-1020 Mass Monitor w/VSCC,41500.0,"Salinas, CA",6,California,53,Monterey,36.4818700009023,-121.73333
03/11/2014,AQS,60192009,3,0.7,ug/m3 LC,4,Tranquillity,1,100.0,88101,PM2.5 - Local Conditions,170,Met One BAM-1020 Mass Monitor w/VSCC,23420.0,"Fresno, CA",6,California,19,Fresno,36.6342250009037,-120.382331
07/13/2014,AQS,60074001,3,8.2,ug/m3 LC,46,"TRAFFIC, RURAL PAVED ROAD",1,100.0,88502,Acceptable PM2.5 AQI & Speciation Mass,731,Met-One BAM-1020 W/PM2.5 SCC,17020.0,"Chico, CA",6,California,7,Butte,39.327563,-121.668811
10/24/2014,AQS,60192008,3,10.6,ug/m3 LC,54,Huron,1,100.0,88502,Acceptable PM2.5 AQI & Speciation Mass,731,Met-One BAM-1020 W/PM2.5 SCC,23420.0,"Fresno, CA",6,California,19,Fresno,36.198672,-120.101096
01/02/2014,AQS,60199000,1,0.9,ug/m3 LC,5,Kaiser Wilderness,1,100.0,88502,Acceptable PM2.5 AQI & Speciation Mass,707,"IMPROVE Module A with Cyclone Inlet-Teflon Filter, 2.2 sq. cm.",23420.0,"Fresno, CA",6,California,19,Fresno,37.2206398607598,-119.155556956851
07/31/2014,AQS,61030006,3,2.3,ug/m3 LC,13,RED BLUFF-310 S. MAIN STREET,1,100.0,88502,Acceptable PM2.5 AQI & Speciation Mass,170,Met-one BAM-1020 W/PM2.5 SCC,39780.0,"Red Bluff, CA",6,California,103,Tehama,40.1678004008256,-122.227138487452
08/01/2014,AQS,60731002,1,12.6,ug/m3 LC,58,Escondido,1,100.0,88502,Acceptable PM2.5 AQI & Speciation Mass,170,Met-one BAM-1020 W/PM2.5 SCC,41740.0,"San Diego-Carlsbad, CA",6,California,73,San Diego,33.127769000864,-117.075086
03/06/2014,AQS,60890004,1,2.3,ug/m3 LC,13,Redding - Health Department,1,100.0,88101,PM2.5 - Local Conditions,117,R & P Model 2000 PM2.5 Sampler w/WINS,39820.0,"Redding, CA",6,California,89,Shasta,40.550130000932,-122.38092
01/26/2014,AQS,61071001,1,11.3,ug/m3 LC,55,Sequoia NP-Ash Mountain,1,100.0,88502,Acceptable PM2.5 AQI & Speciation Mass,707,"IMPROVE Module A with Cyclone Inlet-Teflon Filter, 2.2 sq. cm.",47300.0,"Visalia-Porterville, CA",6,California,107,Tulare,36.498834948,-118.824821113
01/29/2014,AQS,60950004,5,3.3,ug/m3 LC,18,Vallejo,1,100.0,88502,Acceptable PM2.5 AQI & Speciation Mass,810,Met One SASS/SuperSASS Teflon,46700.0,"Vallejo-Fairfield, CA",6,California,95,Solano,38.102507,-122.237976
12/14/2014,AQS,60374004,1,11.2,ug/m3 LC,55,Long Beach (South),1,100.0,88101,PM2.5 - Local Conditions,120,Andersen RAAS2.5-300 PM2.5 SEQ w/WINS,31080.0,"Los Angeles-Long Beach-Anaheim, CA",6,California,37,Los Angeles,33.79236,-118.17533
01/16/2014,AQS,60271003,3,4.5,ug/m3 LC,25,Keeler,1,100.0,88101,PM2.5 - Local Conditions,181,Thermo Scientific TEOM 1400 FDMS or 1405 8500C FDMS w/VSCC,13860.0,"Bishop, CA",6,California,27,Inyo,36.487823,-117.871036
05/25/2014,AQS,60831008,3,10.3,ug/m3 LC,53,Santa Maria,1,100.0,88101,PM2.5 - Local Conditions,170,Met One BAM-1020 Mass Monitor w/VSCC,42200.0,"Santa Maria-Santa Barbara, CA",6,California,83,Santa Barbara,34.942872,-120.435611
08/22/2014,AQS,60290014,1,13.8,ug/m3 LC,60,Bakersfield-California,1,100.0,88101,PM2.5 - Local Conditions,145,R & P Model 2025 PM-2.5 Sequential Air Sampler w/VSCC,12540.0,"Bakersfield, CA",6,California,29,Kern,35.356615,-119.062613
09/08/2014,AQS,61072002,1,14.5,ug/m3 LC,61,Visalia-Church,1,100.0,88101,PM2.5 - Local Conditions,145,R & P Model 2025 PM-2.5 Sequential Air Sampler w/VSCC,47300.0,"Visalia-Porterville, CA",6,California,107,Tulare,36.3321793109462,-119.291227556039
01/09/2014,AQS,60990005,3,18.5,ug/m3 LC,69,Modesto-14th Street,1,100.0,88101,PM2.5 - Local Conditions,170,Met One BAM-1020 Mass Monitor w/VSCC,33700.0,"Modesto, CA",6,California,99,Stanislaus,37.642165,-120.994212
01/26/2014,AQS,60430003,2,2.9,ug/m3 LC,16,Yosemite NP - Turtleback Dome,1,100.0,88502,Acceptable PM2.5 AQI & Speciation Mass,707,"IMPROVE Module A with Cyclone Inlet-Teflon Filter, 2.2 sq. cm.",,,6,California,43,Mariposa,37.71325,-119.7062
03/27/2014,AQS,60210003,3,3.0,ug/m3 LC,17,Willows-Colusa Street,1,100.0,88502,Acceptable PM2.5 AQI & Speciation Mass,731,Met-One BAM-1020 W/PM2.5 SCC,,,6,California,21,Glenn,39.53387,-122.190834
07/29/2014,AQS,60830011,3,8.6,ug/m3 LC,48,Santa Barbara,1,100.0,88101,PM2.5 - Local Conditions,170,Met One BAM-1020 Mass Monitor w/VSCC,42200.0,"Santa Maria-Santa Barbara, CA",6,California,83,Santa Barbara,34.4277749961254,-119.691217778642
11/25/2014,AQS,60074001,3,14.8,ug/m3 LC,62,"TRAFFIC, RURAL PAVED ROAD",1,100.0,88502,Acceptable PM2.5 AQI & Speciation Mass,731,Met-One BAM-1020 W/PM2.5 SCC,17020.0,"Chico, CA",6,California,7,Butte,39.327563,-121.668811
11/07/2014,AQS,60111002,1,14.2,ug/m3 LC,61,Colusa-Sunrise Blvd,1,100.0,88101,PM2.5 - Local Conditions,143,R & P Model 2000 PM-2.5 Air Sampler w/VSCC,,,6,California,11,Colusa,39.18919,-121.99887
08/02/2014,AQS,60190011,1,10.5,ug/m3 LC,54,Fresno - Garland,1,100.0,88101,PM2.5 - Local Conditions,145,R & P Model 2025 PM-2.5 Sequential Air Sampler w/VSCC,23420.0,"Fresno, CA",6,California,19,Fresno,36.78538,-119.77321
02/09/2014,AQS,60590007,1,10.0,ug/m3 LC,53,Anaheim,1,100.0,88101,PM2.5 - Local Conditions,120,Andersen RAAS2.5-300 PM2.5 SEQ w/WINS,31080.0,"Los Angeles-Long Beach-Anaheim, CA",6,California,59,Orange,33.83062,-117.93845
10/02/2014,AQS,60658001,9,11.2,ug/m3 LC,55,Rubidoux,1,100.0,88502,Acceptable PM2.5 AQI & Speciation Mass,170,Met-one BAM-1020 W/PM2.5 SCC,40140.0,"Riverside-San Bernardino-Ontario, CA",6,California,65,Riverside,33.9995800008751,-117.41601
10/17/2014,AQS,60710005,3,18.0,ug/m3 LC,68,Crestline,1,100.0,88502,Acceptable PM2.5 AQI & Speciation Mass,731,Met-One BAM-1020 W/PM2.5 SCC,40140.0,"Riverside-San Bernardino-Ontario, CA",6,California,71,San Bernardino,34.2431,-117.27235
06/25/2014,AQS,60290011,3,27.2,ug/m3 LC,85,Mojave,1,100.0,88101,PM2.5 - Local Conditions,170,Met One BAM-1020 Mass Monitor w/VSCC,12540.0,"Bakersfield, CA",6,California,29,Kern,35.0505513494936,-118.147293620967
12/12/2014,AQS,60292009,3,0.7,ug/m3 LC,4,Lebec,1,100.0,88502,Acceptable PM2.5 AQI & Speciation Mass,731,Met-One BAM-1020 W/PM2.5 SCC,12540.0,"Bakersfield, CA",6,California,29,Kern,34.841567,-118.860588
11/12/2014,AQS,60470003,3,13.8,ug/m3 LC,60,Merced-Coffee,1,100.0,88101,PM2.5 - Local Conditions,170,Met One BAM-1020 Mass Monitor w/VSCC,32900.0,"Merced, CA",6,California,47,Merced,37.281853,-120.433671
09/17/2014,AQS,61072002,1,13.3,ug/m3 LC,59,Visalia-Church,1,100.0,88101,PM2.5 - Local Conditions,145,R & P Model 2025 PM-2.5 Sequential Air Sampler w/VSCC,47300.0,"Visalia-Porterville, CA",6,California,107,Tulare,36.3321793109462,-119.291227556039
04/22/2014,AQS,60650016,3,15.9,ug/m3 LC,64,Temecula,1,100.0,88502,Acceptable PM2.5 AQI & Speciation Mass,731,Met-One BAM-1020 W/PM2.5 SCC,40140.0,"Riverside-San Bernardino-Ontario, CA",6,California,65,Riverside,33.5830180008699,-117.072202
06/03/2014,AQS,60750005,3,6.0,ug/m3 LC,33,San Francisco,1,100.0,88101,PM2.5 - Local Conditions,170,Met One BAM-1020 Mass Monitor w/VSCC,41860.0,"San Francisco-Oakland-Hayward, CA",6,California,75,San Francisco,37.765946,-122.399044
02/18/2014,AQS,60452002,3,3.2,ug/m3 LC,18,Willits-125 East Commercial Street,1,100.0,88101,PM2.5 - Local Conditions,170,Met One BAM-1020 Mass Monitor w/VSCC,46380.0,"Ukiah, CA",6,California,45,Mendocino,39.41174,-123.35264
02/04/2014,AQS,60192008,3,4.8,ug/m3 LC,27,Huron,1,100.0,88502,Acceptable PM2.5 AQI & Speciation Mass,731,Met-One BAM-1020 W/PM2.5 SCC,23420.0,"Fresno, CA",6,California,19,Fresno,36.198672,-120.101096
06/06/2014,AQS,61130004,3,16.4,ug/m3 LC,65,Davis-UCD Campus,1,100.0,88502,Acceptable PM2.5 AQI & Speciation Mass,731,Met-One BAM-1020 W/PM2.5 SCC,40900.0,"Sacramento--Roseville--Arden-Arcade, CA",6,California,113,Yolo,38.53445,-121.7734
01/05/2014,AQS,60731201,1,9.2,ug/m3 LC,51,Pala Airpad,1,100.0,88101,PM2.5 - Local Conditions,236,Teledyne T640 at 5.0 LPM,41740.0,"San Diego-Carlsbad, CA",6,California,73,San Diego,33.3625928342781,-117.090229999878
12/25/2014,AQS,60074001,3,3.8,ug/m3 LC,21,"TRAFFIC, RURAL PAVED ROAD",1,100.0,88502,Acceptable PM2.5 AQI & Speciation Mass,731,Met-One BAM-1020 W/PM2.5 SCC,17020.0,"Chico, CA",6,California,7,Butte,39.327563,-121.668811
06/16/2014,AQS,61112002,4,15.0,ug/m3 LC,62,Simi Valley-Cochran Street,1,100.0,88101,PM2.5 - Local Conditions,170,Met One BAM-1020 Mass Monitor w/VSCC,37100.0,"Oxnard-Thousand Oaks-Ventura, CA",6,California,111,Ventura,34.276316,-118.683685
10/25/2014,AQS,60651016,1,8.1,ug/m3 LC,45,Morongo Air Monitoring Station,1,100.0,88101,PM2.5 - Local Conditions,170,Met One BAM-1020 Mass Monitor w/VSCC,40140.0,"Riverside-San Bernardino-Ontario, CA",6,California,65,Riverside,33.9447129,-116.830074
04/11/2014,AQS,60590007,3,18.8,ug/m3 LC,69,Anaheim,1,100.0,88502,Acceptable PM2.5 AQI & Speciation Mass,170,Met-one BAM-1020 W/PM2.5 SCC,31080.0,"Los Angeles-Long Beach-Anaheim, CA",6,California,59,Orange,33.83062,-117.93845
11/30/2014,AQS,60731008,1,8.1,ug/m3 LC,45,Camp Pendleton,1,100.0,88502,Acceptable PM2.5 AQI & Speciation Mass,170,Met-one BAM-1020 W/PM2.5 SCC,41740.0,"San Diego-Carlsbad, CA",6,California,73,San Diego,33.217046,-117.396249
08/12/2014,AQS,60190011,5,8.1,ug/m3 LC,45,Fresno - Garland,1,100.0,88502,Acceptable PM2.5 AQI & Speciation Mass,810,Met One SASS/SuperSASS Teflon,23420.0,"Fresno, CA",6,California,19,Fresno,36.78538,-119.77321
06/15/2014,AQS,60650009,1,21.5,ug/m3 LC,74,Pechanga,1,100.0,88101,PM2.5 - Local Conditions,170,Met One BAM-1020 Mass Monitor w/VSCC,40140.0,"Riverside-San Bernardino-Ontario, CA",6,California,65,Riverside,33.4478670008682,-117.088649
12/16/2014,AQS,60190011,3,10.6,ug/m3 LC,54,Fresno - Garland,1,100.0,88101,PM2.5 - Local Conditions,170,Met One BAM-1020 Mass Monitor w/VSCC,23420.0,"Fresno, CA",6,California,19,Fresno,36.78538,-119.77321
06/05/2014,AQS,60990005,3,8.7,ug/m3 LC,48,Modesto-14th Street,1,100.0,88101,PM2.5 - Local Conditions,170,Met One BAM-1020 Mass Monitor w/VSCC,33700.0,"Modesto, CA",6,California,99,Stanislaus,37.642165,-120.994212
11/05/2014,AQS,60530002,3,5.0,ug/m3 LC,28,Carmel Valley,1,100.0,88101,PM2.5 - Local Conditions,170,Met One BAM-1020 Mass Monitor w/VSCC,41500.0,"Salinas, CA",6,California,53,Monterey,36.4818700009023,-121.73333
04/10/2014,AQS,60771002,4,8.5,ug/m3 LC,47,Stockton-Hazelton,1,100.0,88101,PM2.5 - Local Conditions,170,Met One BAM-1020 Mass Monitor w/VSCC,44700.0,"Stockton-Lodi, CA",6,California,77,San Joaquin,37.9507408985318,-121.268522670981
04/02/2014,AQS,60798001,3,2.8,ug/m3 LC,16,Atascadero (original site),1,100.0,88101,PM2.5 - Local Conditions,170,Met One BAM-1020 Mass Monitor w/VSCC,42020.0,"San Luis Obispo-Paso Robles-Arroyo Grande, CA",6,California,79,San Luis Obispo,35.49158,-120.66804
06/28/2014,AQS,60290011,3,8.3,ug/m3 LC,46,Mojave,1,100.0,88101,PM2.5 - Local Conditions,170,Met One BAM-1020 Mass Monitor w/VSCC,12540.0,"Bakersfield, CA",6,California,29,Kern,35.0505513494936,-118.147293620967
07/03/2014,AQS,60470003,3,7.2,ug/m3 LC,40,Merced-Coffee,1,100.0,88101,PM2.5 - Local Conditions,170,Met One BAM-1020 Mass Monitor w/VSCC,32900.0,"Merced, CA",6,California,47,Merced,37.281853,-120.433671
04/23/2014,AQS,60690002,3,3.9,ug/m3 LC,22,Hollister,1,100.0,88101,PM2.5 - Local Conditions,170,Met One BAM-1020 Mass Monitor w/VSCC,41940.0,"San Jose-Sunnyvale-Santa Clara, CA",6,California,69,San Benito,36.8434250009057,-121.3621
05/17/2014,AQS,60731002,5,14.0,ug/m3 LC,60,Escondido,1,100.0,88502,Acceptable PM2.5 AQI & Speciation Mass,810,Met One SASS/SuperSASS Teflon,41740.0,"San Diego-Carlsbad, CA",6,California,73,San Diego,33.127769000864,-117.075086
01/05/2014,AQS,60570005,1,4.0,ug/m3 LC,22,Grass Valley-Litton Building,1,100.0,88101,PM2.5 - Local Conditions,117,R & P Model 2000 PM2.5 Sampler w/WINS,46020.0,"Truckee-Grass Valley, CA",6,California,57,Nevada,39.2334770009245,-121.055608
11/12/2014,AQS,60070008,1,12.5,ug/m3 LC,57,Chico-East Avenue,1,100.0,88101,PM2.5 - Local Conditions,145,R & P Model 2025 PM-2.5 Sequential Air Sampler w/VSCC,17020.0,"Chico, CA",6,California,7,Butte,39.76168,-121.84047
08/11/2014,AQS,60830011,3,8.9,ug/m3 LC,49,Santa Barbara,1,100.0,88101,PM2.5 - Local Conditions,170,Met One BAM-1020 Mass Monitor w/VSCC,42200.0,"Santa Maria-Santa Barbara, CA",6,California,83,Santa Barbara,34.4277749961254,-119.691217778642
04/22/2014,AQS,61010003,3,7.9,ug/m3 LC,44,Yuba City,1,100.0,88502,Acceptable PM2.5 AQI & Speciation Mass,731,Met-One BAM-1020 W/PM2.5 SCC,49700.0,"Yuba City, CA",6,California,101,Sutter,39.1387725442464,-121.618548986224
10/12/2014,AQS,60659001,3,19.2,ug/m3 LC,70,Lake Elsinore,1,100.0,88502,Acceptable PM2.5 AQI & Speciation Mass,731,Met-One BAM-1020 W/PM2.5 SCC,40140.0,"Riverside-San Bernardino-Ontario, CA",6,California,65,Riverside,33.67649,-117.33098
07/18/2014,AQS,61010003,3,7.3,ug/m3 LC,41,Yuba City,1,100.0,88502,Acceptable PM2.5 AQI & Speciation Mass,731,Met-One BAM-1020 W/PM2.5 SCC,49700.0,"Yuba City, CA",6,California,101,Sutter,39.1387725442464,-121.618548986224
05/10/2014,AQS,60830011,3,7.9,ug/m3 LC,44,Santa Barbara,1,100.0,88101,PM2.5 - Local Conditions,170,Met One BAM-1020 Mass Monitor w/VSCC,42200.0,"Santa Maria-Santa Barbara, CA",6,California,83,Santa Barbara,34.4277749961254,-119.691217778642
03/21/2014,AQS,61110007,3,12.6,ug/m3 LC,58,Thousand Oaks,1,100.0,88101,PM2.5 - Local Conditions,170,Met One BAM-1020 Mass Monitor w/VSCC,37100.0,"Oxnard-Thousand Oaks-Ventura, CA",6,California,111,Ventura,34.210169,-118.870509
04/13/2014,AQS,60670006,1,6.5,ug/m3 LC,36,Sacramento-Del Paso Manor,1,100.0,88101,PM2.5 - Local Conditions,145,R & P Model 2025 PM-2.5 Sequential Air Sampler w/VSCC,40900.0,"Sacramento--Roseville--Arden-Arcade, CA",6,California,67,Sacramento,38.6137790009202,-121.368014
03/11/2014,AQS,60131004,3,8.4,ug/m3 LC,47,San Pablo,1,100.0,88101,PM2.5 - Local Conditions,170,Met One BAM-1020 Mass Monitor w/VSCC,41860.0,"San Francisco-Oakland-Hayward, CA",6,California,13,Contra Costa,37.9604,-122.356811
06/12/2014,AQS,60811001,3,2.9,ug/m3 LC,16,Redwood City,1,100.0,88101,PM2.5 - Local Conditions,170,Met One BAM-1020 Mass Monitor w/VSCC,41860.0,"San Francisco-Oakland-Hayward, CA",6,California,81,San Mateo,37.482934,-122.20337
03/01/2014,AQS,60792006,3,5.2,ug/m3 LC,29,San Luis Obispo,1,100.0,88101,PM2.5 - Local Conditions,170,Met One BAM-1020 Mass Monitor w/VSCC,42020.0,"San Luis Obispo-Paso Robles-Arroyo Grande, CA",6,California,79,San Luis Obispo,35.25651,-120.6693
08/09/2014,AQS,60271003,1,13.0,ug/m3 LC,58,Keeler,1,100.0,88101,PM2.5 - Local Conditions,145,R & P Model 2025 PM-2.5 Sequential Air Sampler w/VSCC,13860.0,"Bishop, CA",6,California,27,Inyo,36.487823,-117.871036
01/06/2014,AQS,60871004,3,42.7,ug/m3 LC,119,Felton,1,100.0,88101,PM2.5 - Local Conditions,170,Met One BAM-1020 Mass Monitor w/VSCC,42100.0,"Santa Cruz-Watsonville, CA",6,California,87,Santa Cruz,37.0480078956044,-122.075695332776
03/24/2014,AQS,60690002,3,7.3,ug/m3 LC,41,Hollister,1,100.0,88101,PM2.5 - Local Conditions,170,Met One BAM-1020 Mass Monitor w/VSCC,41940.0,"San Jose-Sunnyvale-Santa Clara, CA",6,California,69,San Benito,36.8434250009057,-121.3621
09/20/2014,AQS,60290014,4,19.4,ug/m3 LC,70,Bakersfield-California,1,100.0,88502,Acceptable PM2.5 AQI & Speciation Mass,731,Met-One BAM-1020 W/PM2.5 SCC,12540.0,"Bakersfield, CA",6,California,29,Kern,35.356615,-119.062613
04/28/2014,AQS,61072010,3,13.2,ug/m3 LC,59,Porterville,1,100.0,88502,Acceptable PM2.5 AQI & Speciation Mass,731,Met-One BAM-1020 W/PM2.5 SCC,47300.0,"Visalia-Porterville, CA",6,California,107,Tulare,36.0318310008979,-119.055018
08/19/2014,AQS,60371201,3,19.5,ug/m3 LC,70,Reseda,1,100.0,88502,Acceptable PM2.5 AQI & Speciation Mass,731,Met-One BAM-1020 W/PM2.5 SCC,31080.0,"Los Angeles-Long Beach-Anaheim, CA",6,California,37,Los Angeles,34.19925,-118.53276
08/30/2014,AQS,60651016,1,8.7,ug/m3 LC,48,Morongo Air Monitoring Station,1,100.0,88101,PM2.5 - Local Conditions,170,Met One BAM-1020 Mass Monitor w/VSCC,40140.0,"Riverside-San Bernardino-Ontario, CA",6,California,65,Riverside,33.9447129,-116.830074
10/18/2014,AQS,60371103,9,13.0,ug/m3 LC,58,Los Angeles-North Main Street,1,100.0,88502,Acceptable PM2.5 AQI & Speciation Mass,170,Met-one BAM-1020 W/PM2.5 SCC,31080.0,"Los Angeles-Long Beach-Anaheim, CA",6,California,37,Los Angeles,34.0665900008759,-118.22688
03/12/2014,AQS,60792006,3,5.8,ug/m3 LC,32,San Luis Obispo,1,100.0,88101,PM2.5 - Local Conditions,170,Met One BAM-1020 Mass Monitor w/VSCC,42020.0,"San Luis Obispo-Paso Robles-Arroyo Grande, CA",6,California,79,San Luis Obispo,35.25651,-120.6693
08/04/2014,AQS,60190011,4,12.5,ug/m3 LC,57,Fresno - Garland,1,100.0,88101,PM2.5 - Local Conditions,170,Met One BAM-1020 Mass Monitor w/VSCC,23420.0,"Fresno, CA",6,California,19,Fresno,36.78538,-119.77321
07/29/2014,AQS,60452002,3,7.5,ug/m3 LC,42,Willits-125 East Commercial Street,1,100.0,88101,PM2.5 - Local Conditions,170,Met One BAM-1020 Mass Monitor w/VSCC,46380.0,"Ukiah, CA",6,California,45,Mendocino,39.41174,-123.35264
09/19/2014,AQS,60070008,1,5.9,ug/m3 LC,33,Chico-East Avenue,1,100.0,88101,PM2.5 - Local Conditions,145,R & P Model 2025 PM-2.5 Sequential Air Sampler w/VSCC,17020.0,"Chico, CA",6,California,7,Butte,39.76168,-121.84047
01/12/2014,AQS,61113001,3,7.8,ug/m3 LC,43,El Rio-Rio Mesa School #2,1,100.0,88101,PM2.5 - Local Conditions,170,Met One BAM-1020 Mass Monitor w/VSCC,37100.0,"Oxnard-Thousand Oaks-Ventura, CA",6,California,111,Ventura,34.25239,-119.143182
10/16/2014,AQS,60990005,3,4.5,ug/m3 LC,25,Modesto-14th Street,1,100.0,88101,PM2.5 - Local Conditions,170,Met One BAM-1020 Mass Monitor w/VSCC,33700.0,"Modesto, CA",6,California,99,Stanislaus,37.642165,-120.994212
10/20/2014,AQS,60571001,2,3.7,ug/m3 LC,21,Truckee-Fire Station,1,100.0,88101,PM2.5 - Local Conditions,118,R & P Model 2025 PM2.5 Sequential w/WINS,46020.0,"Truckee-Grass Valley, CA",6,California,57,Nevada,39.3278300009251,-120.184592
07/03/2014,AQS,60231005,1,7.0,ug/m3 LC,39,Humboldt Hill,1,100.0,88502,Acceptable PM2.5 AQI & Speciation Mass,195,GRIMM EDM Model 180 with naphion dryer,21700.0,"Eureka-Arcata-Fortuna, CA",6,California,23,Humboldt,40.71528,-124.20139
02/04/2014,AQS,60730003,5,7.6,ug/m3 LC,42,El Cajon,1,100.0,88502,Acceptable PM2.5 AQI & Speciation Mass,810,Met One SASS/SuperSASS Teflon,41740.0,"San Diego-Carlsbad, CA",6,California,73,San Diego,32.7911940008595,-116.942092
04/01/2014,AQS,61130004,3,3.4,ug/m3 LC,19,Davis-UCD Campus,1,100.0,88502,Acceptable PM2.5 AQI & Speciation Mass,731,Met-One BAM-1020 W/PM2.5 SCC,40900.0,"Sacramento--Roseville--Arden-Arcade, CA",6,California,113,Yolo,38.53445,-121.7734
01/05/2014,AQS,60890004,1,3.3,ug/m3 LC,18,Redding - Health Department,1,100.0,88101,PM2.5 - Local Conditions,117,R & P Model 2000 PM2.5 Sampler w/WINS,39820.0,"Redding, CA",6,California,89,Shasta,40.550130000932,-122.38092
08/05/2014,AQS,60271003,3,10.9,ug/m3 LC,54,Keeler,1,100.0,88101,PM2.5 - Local Conditions,181,Thermo Scientific TEOM 1400 FDMS or 1405 8500C FDMS w/VSCC,13860.0,"Bishop, CA",6,California,27,Inyo,36.487823,-117.871036
11/17/2014,AQS,61072002,3,23.4,ug/m3 LC,78,Visalia-Church,1,100.0,88502,Acceptable PM2.5 AQI & Speciation Mass,731,Met-One BAM-1020 W/PM2.5 SCC,47300.0,"Visalia-Porterville, CA",6,California,107,Tulare,36.3321793109462,-119.291227556039
02/17/2014,AQS,60550003,3,13.2,ug/m3 LC,59,Napa,1,100.0,88101,PM2.5 - Local Conditions,170,Met One BAM-1020 Mass Monitor w/VSCC,34900.0,"Napa, CA",6,California,55,Napa,38.310942,-122.296189
05/12/2014,AQS,60658005,3,8.2,ug/m3 LC,46,Mira Loma (Van Buren),1,100.0,88502,Acceptable PM2.5 AQI & Speciation Mass,170,Met-one BAM-1020 W/PM2.5 SCC,40140.0,"Riverside-San Bernardino-Ontario, CA",6,California,65,Riverside,33.996360000875,-117.4924
04/03/2014,AQS,60210003,3,3.4,ug/m3 LC,19,Willows-Colusa Street,1,100.0,88502,Acceptable PM2.5 AQI & Speciation Mass,731,Met-One BAM-1020 W/PM2.5 SCC,,,6,California,21,Glenn,39.53387,-122.190834
10/10/2014,AQS,60452002,3,9.4,ug/m3 LC,52,Willits-125 East Commercial Street,1,100.0,88101,PM2.5 - Local Conditions,170,Met One BAM-1020 Mass Monitor w/VSCC,46380.0,"Ukiah, CA",6,California,45,Mendocino,39.41174,-123.35264
12/22/2014,AQS,60850005,3,5.3,ug/m3 LC,29,San Jose - Jackson,1,100.0,88101,PM2.5 - Local Conditions,170,Met One BAM-1020 Mass Monitor w/VSCC,41940.0,"San Jose-Sunnyvale-Santa Clara, CA",6,California,85,Santa Clara,37.348497,-121.894898
04/02/2014,AQS,60650016,3,1.5,ug/m3 LC,8,Temecula,1,100.0,88502,Acceptable PM2.5 AQI & Speciation Mass,731,Met-One BAM-1020 W/PM2.5 SCC,40140.0,"Riverside-San Bernardino-Ontario, CA",6,California,65,Riverside,33.5830180008699,-117.072202
10/28/2014,AQS,61111004,3,6.6,ug/m3 LC,37,Ojai - East Ojai Ave,1,100.0,88101,PM2.5 - Local Conditions,170,Met One BAM-1020 Mass Monitor w/VSCC,37100.0,"Oxnard-Thousand Oaks-Ventura, CA",6,California,111,Ventura,34.44806,-119.2313
03/30/2014,AQS,60371103,2,5.7,ug/m3 LC,32,Los Angeles-North Main Street,1,100.0,88101,PM2.5 - Local Conditions,120,Andersen RAAS2.5-300 PM2.5 SEQ w/WINS,31080.0,"Los Angeles-Long Beach-Anaheim, CA",6,California,37,Los Angeles,34.0665900008759,-118.22688
12/21/2014,AQS,60690002,3,2.5,ug/m3 LC,14,Hollister,1,100.0,88101,PM2.5 - Local Conditions,170,Met One BAM-1020 Mass Monitor w/VSCC,41940.0,"San Jose-Sunnyvale-Santa Clara, CA",6,California,69,San Benito,36.8434250009057,-121.3621
03/18/2014,AQS,60530002,3,6.4,ug/m3 LC,36,Carmel Valley,1,100.0,88101,PM2.5 - Local Conditions,170,Met One BAM-1020 Mass Monitor w/VSCC,41500.0,"Salinas, CA",6,California,53,Monterey,36.4818700009023,-121.73333
04/11/2014,AQS,60731002,2,7.0,ug/m3 LC,39,Escondido,1,100.0,88502,Acceptable PM2.5 AQI & Speciation Mass,170,Met-one BAM-1020 W/PM2.5 SCC,41740.0,"San Diego-Carlsbad, CA",6,California,73,San Diego,33.127769000864,-117.075086
04/15/2014,AQS,60711004,3,16.3,ug/m3 LC,64,Upland,1,100.0,88502,Acceptable PM2.5 AQI & Speciation Mass,731,Met-One BAM-1020 W/PM2.5 SCC,40140.0,"Riverside-San Bernardino-Ontario, CA",6,California,71,San Bernardino,34.10374,-117.62914
04/29/2014,AQS,60832011,1,7.5,ug/m3 LC,42,Goleta,1,100.0,88101,PM2.5 - Local Conditions,170,Met One BAM-1020 Mass Monitor w/VSCC,42200.0,"Santa Maria-Santa Barbara, CA",6,California,83,Santa Barbara,34.4455100008805,-119.8284
08/07/2014,AQS,60250005,3,14.4,ug/m3 LC,61,Calexico-Ethel Street,1,100.0,88101,PM2.5 - Local Conditions,170,Met One BAM-1020 Mass Monitor w/VSCC,20940.0,"El Centro, CA",6,California,25,Imperial,32.67618,-115.48307
08/04/2014,AQS,60250005,1,7.8,ug/m3 LC,43,Calexico-Ethel Street,1,100.0,88101,PM2.5 - Local Conditions,145,R & P Model 2025 PM-2.5 Sequential Air Sampler w/VSCC,20940.0,"El Centro, CA",6,California,25,Imperial,32.67618,-115.48307
01/02/2014,AQS,60371002,3,13.5,ug/m3 LC,59,Burbank,1,100.0,88502,Acceptable PM2.5 AQI & Speciation Mass,170,Met-one BAM-1020 W/PM2.5 SCC,31080.0,"Los Angeles-Long Beach-Anaheim, CA",6,California,37,Los Angeles,34.17605,-118.31712
05/20/2014,AQS,60731010,1,4.7,ug/m3 LC,26,San Diego - Beardsley Street,1,100.0,88101,PM2.5 - Local Conditions,145,R & P Model 2025 PM-2.5 Sequential Air Sampler w/VSCC,41740.0,"San Diego-Carlsbad, CA",6,California,73,San Diego,32.7014920008583,-117.149653
05/13/2014,AQS,60651016,1,3.5,ug/m3 LC,19,Morongo Air Monitoring Station,1,100.0,88101,PM2.5 - Local Conditions,170,Met One BAM-1020 Mass Monitor w/VSCC,40140.0,"Riverside-San Bernardino-Ontario, CA",6,California,65,Riverside,33.9447129,-116.830074
04/24/2014,AQS,60773005,3,5.7,ug/m3 LC,32,Tracy-Airport,1,100.0,88502,Acceptable PM2.5 AQI & Speciation Mass,731,Met-One BAM-1020 W/PM2.5 SCC,44700.0,"Stockton-Lodi, CA",6,California,77,San Joaquin,37.682635,-121.442495
08/10/2014,AQS,60731008,1,9.0,ug/m3 LC,50,Camp Pendleton,1,100.0,88502,Acceptable PM2.5 AQI & Speciation Mass,170,Met-one BAM-1020 W/PM2.5 SCC,41740.0,"San Diego-Carlsbad, CA",6,California,73,San Diego,33.217046,-117.396249
10/11/2014,AQS,60731006,1,10.3,ug/m3 LC,53,Alpine,1,100.0,88502,Acceptable PM2.5 AQI & Speciation Mass,170,Met-one BAM-1020 W/PM2.5 SCC,41740.0,"San Diego-Carlsbad, CA",6,California,73,San Diego,32.8423180008601,-116.768293
10/27/2014,AQS,60670006,1,5.4,ug/m3 LC,30,Sacramento-Del Paso Manor,1,100.0,88101,PM2.5 - Local Conditions,145,R & P Model 2025 PM-2.5 Sequential Air Sampler w/VSCC,40900.0,"Sacramento--Roseville--Arden-Arcade, CA",6,California,67,Sacramento,38.6137790009202,-121.368014
08/16/2014,AQS,60650012,3,15.6,ug/m3 LC,63,Banning Airport,1,100.0,88502,Acceptable PM2.5 AQI & Speciation Mass,731,Met-One BAM-1020 W/PM2.5 SCC,40140.0,"Riverside-San Bernardino-Ontario, CA",6,California,65,Riverside,33.92086,-116.85841
04/19/2014,AQS,60195001,3,5.9,ug/m3 LC,33,Clovis-Villa,1,100.0,88101,PM2.5 - Local Conditions,170,Met One BAM-1020 Mass Monitor w/VSCC,23420.0,"Fresno, CA",6,California,19,Fresno,36.819449,-119.716433
05/15/2014,AQS,61072002,3,13.1,ug/m3 LC,58,Visalia-Church,1,100.0,88502,Acceptable PM2.5 AQI & Speciation Mass,731,Met-One BAM-1020 W/PM2.5 SCC,47300.0,"Visalia-Porterville, CA",6,California,107,Tulare,36.3321793109462,-119.291227556039
06/18/2014,AQS,60731002,1,11.4,ug/m3 LC,55,Escondido,1,100.0,88502,Acceptable PM2.5 AQI & Speciation Mass,170,Met-one BAM-1020 W/PM2.5 SCC,41740.0,"San Diego-Carlsbad, CA",6,California,73,San Diego,33.127769000864,-117.075086
04/13/2014,AQS,60130002,3,8.3,ug/m3 LC,46,Concord,1,100.0,88101,PM2.5 - Local Conditions,170,Met One BAM-1020 Mass Monitor w/VSCC,41860.0,"San Francisco-Oakland-Hayward, CA",6,California,13,Contra Costa,37.936013,-122.026154
06/19/2014,AQS,60530002,3,6.8,ug/m3 LC,38,Carmel Valley,1,100.0,88101,PM2.5 - Local Conditions,170,Met One BAM-1020 Mass Monitor w/VSCC,41500.0,"Salinas, CA",6,California,53,Monterey,36.4818700009023,-121.73333
02/14/2014,AQS,61110009,3,3.8,ug/m3 LC,21,Piru - Pacific,1,100.0,88101,PM2.5 - Local Conditions,170,Met One BAM-1020 Mass Monitor w/VSCC,37100.0,"Oxnard-Thousand Oaks-Ventura, CA",6,California,111,Ventura,34.404281,-118.80998
10/08/2014,AQS,60731002,1,8.1,ug/m3 LC,45,Escondido,1,100.0,88101,PM2.5 - Local Conditions,145,R & P Model 2025 PM-2.5 Sequential Air Sampler w/VSCC,41740.0,"San Diego-Carlsbad, CA",6,California,73,San Diego,33.127769000864,-117.075086
08/24/2014,AQS,60070008,4,4.0,ug/m3 LC,22,Chico-East Avenue,1,100.0,88502,Acceptable PM2.5 AQI & Speciation Mass,731,Met-One BAM-1020 W/PM2.5 SCC,17020.0,"Chico, CA",6,California,7,Butte,39.76168,-121.84047
11/01/2014,AQS,60190011,3,7.7,ug/m3 LC,43,Fresno - Garland,1,100.0,88101,PM2.5 - Local Conditions,170,Met One BAM-1020 Mass Monitor w/VSCC,23420.0,"Fresno, CA",6,California,19,Fresno,36.78538,-119.77321
03/26/2014,AQS,60210003,3,3.8,ug/m3 LC,21,Willows-Colusa Street,1,100.0,88502,Acceptable PM2.5 AQI & Speciation Mass,731,Met-One BAM-1020 W/PM2.5 SCC,,,6,California,21,Glenn,39.53387,-122.190834
