Date,Source,Site ID,POC,Daily Mean PM2.5 Concentration,Units,Daily AQI Value,Local Site Name,Daily Obs Count,Percent Complete,AQS Parameter Code,AQS Parameter Description,Method Code,Method Description,CBSA Code,CBSA Name,State FIPS Code,State,County FIPS Code,County,Site Latitude,Site Longitude
01/05/2023,AQS,60731016,1,3.1,ug/m3 LC,17,San Diego - Kearny Villa Rd.,1,100.0,88101,PM2.5 - Local Conditions,545.0,Met One E-SEQ-FRM PM2.5 with VSCC,41740.0,"San Diego-Carlsbad, CA",6,California,73,San Diego,32.8457090008602,-117.123964
05/26/2023,AQS,60730077,3,6.8,ug/m3 LC,38,Campo Indian Reservation,1,100.0,88101,PM2.5 - Local Conditions,236.0,Teledyne T640 at 5.0 LPM,41740.0,"San Diego-Carlsbad, CA",6,California,73,San Diego,32.6509000008575,-116.365
09/12/2023,AQS,60376012,3,11.6,ug/m3 LC,56,Santa Clarita,1,100.0,88502,Acceptable PM2.5 AQI & Speciation Mass,731.0,Met-One BAM-1020 W/PM2.5 SCC,31080.0,"Los Angeles-Long Beach-Anaheim, CA",6,California,37,Los Angeles,34.38344,-118.5284
03/31/2023,AQS,60250005,5,3.9,ug/m3 LC,22,Calexico-Ethel Street,1,100.0,88502,Acceptable PM2.5 AQI & Speciation Mass,810.0,Met One SASS/SuperSASS Teflon,20940.0,"El Centro, CA",6,California,25,Imperial,32.67618,-115.48307
10/24/2023,AQS,60650012,3,8.7,ug/m3 LC,48,Banning Airport,1,100.0,88502,Acceptable PM2.5 AQI & Speciation Mass,731.0,Met-One BAM-1020 W/PM2.5 SCC,40140.0,"Riverside-San Bernardino-Ontario, CA",6,California,65,Riverside,33.92086,-116.85841
01/09/2023,AQS,60670010,3,5.2,ug/m3 LC,29,Sacramento-1309 T Street,1,100.0,88101,PM2.5 - Local Conditions,170.0,Met One BAM-1020 Mass Monitor w/VSCC,40900.0,"Sacramento--Roseville--Arden-Arcade, CA",6,California,67,Sacramento,38.56844,-121.49311
09/30/2023,AQS,60251003,3,14.3,ug/m3 LC,61,El Centro-9th Street,1,100.0,88101,PM2.5 - Local Conditions,209.0,Met One BAM-1022 Mass Monitor w/ VSCC or TE-PM2.5C,20940.0,"El Centro, CA",6,California,25,Imperial,32.79222,-115.56306
01/25/2023,AQS,60658005,3,6.6,ug/m3 LC,37,Mira Loma (Van Buren),1,100.0,88101,PM2.5 - Local Conditions,170.0,Met One BAM-1020 Mass Monitor w/VSCC,40140.0,"Riverside-San Bernardino-Ontario, CA",6,California,65,Riverside,33.996360000875,-117.4924
11/07/2023,AQS,60510005,4,1.2,ug/m3 LC,7,Lee Vining,1,100.0,88101,PM2.5 - Local Conditions,638.0,Teledyne T640X at 16.67 LPM w/Network Data Alignment enabled,,,6,California,51,Mono,37.962069,-119.120278
03/01/2023,AQS,60850006,3,2.5,ug/m3 LC,14,San Jose - Knox Avenue,1,100.0,88101,PM2.5 - Local Conditions,170.0,Met One BAM-1020 Mass Monitor w/VSCC,41940.0,"San Jose-Sunnyvale-Santa Clara, CA",6,California,85,Santa Clara,37.338135,-121.849783
11/29/2023,AQS,60612003,3,11.4,ug/m3 LC,55,Lincoln-2885 Moore Road,1,100.0,88502,Acceptable PM2.5 AQI & Speciation Mass,731.0,Met-One BAM-1020 W/PM2.5 SCC,40900.0,"Sacramento--Roseville--Arden-Arcade, CA",6,California,61,Placer,38.867937000922,-121.338353
06/02/2023,AQS,60650500,1,10.1,ug/m3 LC,53,29 Palms,1,100.0,88101,PM2.5 - Local Conditions,238.0,Teledyne T640X at 16.67 LPM,40140.0,"Riverside-San Bernardino-Ontario, CA",6,California,65,Riverside,33.7196900008716,-116.1897
09/27/2023,AQS,60850006,3,5.0,ug/m3 LC,28,San Jose - Knox Avenue,1,100.0,88101,PM2.5 - Local Conditions,170.0,Met One BAM-1020 Mass Monitor w/VSCC,41940.0,"San Jose-Sunnyvale-Santa Clara, CA",6,California,85,Santa Clara,37.338135,-121.849783
11/16/2023,AQS,60870007,3,1.6,ug/m3 LC,9,Santa Cruz,1,100.0,88101,PM2.5 - Local Conditions,170.0,Met One BAM-1020 Mass Monitor w/VSCC,42100.0,"Santa Cruz-Watsonville, CA",6,California,87,Santa Cruz,36.983320000907,-121.98822
09/08/2023,AQS,60650500,1,8.8,ug/m3 LC,49,29 Palms,1,100.0,88101,PM2.5 - Local Conditions,238.0,Teledyne T640X at 16.67 LPM,40140.0,"Riverside-San Bernardino-Ontario, CA",6,California,65,Riverside,33.7196900008716,-116.1897
01/28/2023,AQS,60990005,3,20.0,ug/m3 LC,71,Modesto-14th Street,1,100.0,88101,PM2.5 - Local Conditions,170.0,Met One BAM-1020 Mass Monitor w/VSCC,33700.0,"Modesto, CA",6,California,99,Stanislaus,37.642165,-120.994212
10/18/2023,AQS,60271023,21,5.7,ug/m3 LC,32,Bishop Tribe EMO,1,100.0,88101,PM2.5 - Local Conditions,736.0,Teledyne T640 at 5.0 LPM (Corrected),13860.0,"Bishop, CA",6,California,27,Inyo,37.3621369693511,-118.417477920338
06/20/2023,AQS,60192016,3,4.0,ug/m3 LC,22,Fresno-Foundry,1,100.0,88101,PM2.5 - Local Conditions,170.0,Met One BAM-1020 Mass Monitor w/VSCC,23420.0,"Fresno, CA",6,California,19,Fresno,36.710833,-119.7775
06/01/2023,AQS,60631007,4,3.2,ug/m3 LC,18,Chester-222 First Ave,1,100.0,88502,Acceptable PM2.5 AQI & Speciation Mass,731.0,Met-One BAM-1020 W/PM2.5 SCC,,,6,California,63,Plumas,40.3096440009309,-121.227848
01/19/2023,AQS,60270002,1,1.5,ug/m3 LC,8,White Mountain Research Center - Owens Valley Lab,1,100.0,88101,PM2.5 - Local Conditions,238.0,Teledyne T640X at 16.67 LPM,13860.0,"Bishop, CA",6,California,27,Inyo,37.360684,-118.330783
03/05/2023,AQS,60970004,3,4.7,ug/m3 LC,26,Sebastopol,1,100.0,88101,PM2.5 - Local Conditions,170.0,Met One BAM-1020 Mass Monitor w/VSCC,42220.0,"Santa Rosa, CA",6,California,97,Sonoma,38.403765,-122.818294
03/11/2023,AQS,60610004,3,5.1,ug/m3 LC,28,Colfax-City Hall,1,100.0,88502,Acceptable PM2.5 AQI & Speciation Mass,731.0,Met-One BAM-1020 W/PM2.5 SCC,40900.0,"Sacramento--Roseville--Arden-Arcade, CA",6,California,61,Placer,39.100174496,-120.953831711
11/02/2023,AQS,61130004,3,19.8,ug/m3 LC,71,Davis-UCD Campus,1,100.0,88502,Acceptable PM2.5 AQI & Speciation Mass,731.0,Met-One BAM-1020 W/PM2.5 SCC,40900.0,"Sacramento--Roseville--Arden-Arcade, CA",6,California,113,Yolo,38.53445,-121.7734
01/20/2023,AQS,60250005,3,5.6,ug/m3 LC,31,Calexico-Ethel Street,1,100.0,88101,PM2.5 - Local Conditions,170.0,Met One BAM-1020 Mass Monitor w/VSCC,20940.0,"El Centro, CA",6,California,25,Imperial,32.67618,-115.48307
12/23/2023,AQS,60271003,3,7.6,ug/m3 LC,42,Keeler,1,100.0,88101,PM2.5 - Local Conditions,181.0,Thermo Scientific TEOM 1400 FDMS or 1405 8500C FDMS w/VSCC,13860.0,"Bishop, CA",6,California,27,Inyo,36.487823,-117.871036
12/22/2023,AQS,60650012,3,9.6,ug/m3 LC,52,Banning Airport,1,100.0,88502,Acceptable PM2.5 AQI & Speciation Mass,731.0,Met-One BAM-1020 W/PM2.5 SCC,40140.0,"Riverside-San Bernardino-Ontario, CA",6,California,65,Riverside,33.92086,-116.85841
03/21/2023,AQS,60650500,1,3.5,ug/m3 LC,19,29 Palms,1,100.0,88101,PM2.5 - Local Conditions,238.0,Teledyne T640X at 16.67 LPM,40140.0,"Riverside-San Bernardino-Ontario, CA",6,California,65,Riverside,33.7196900008716,-116.1897
10/01/2023,AQS,60712002,3,3.9,ug/m3 LC,22,Fontana,1,100.0,88502,Acceptable PM2.5 AQI & Speciation Mass,731.0,Met-One BAM-1020 W/PM2.5 SCC,40140.0,"Riverside-San Bernardino-Ontario, CA",6,California,71,San Bernardino,34.10002,-117.49201
10/27/2023,AQS,60290014,1,11.1,ug/m3 LC,55,Bakersfield-California,1,100.0,88101,PM2.5 - Local Conditions,145.0,R & P Model 2025 PM-2.5 Sequential Air Sampler w/VSCC,12540.0,"Bakersfield, CA",6,California,29,Kern,35.356615,-119.062613
01/27/2023,AQS,60731022,1,7.6,ug/m3 LC,42,El Cajon - Lexington Elementary School,1,100.0,88101,PM2.5 - Local Conditions,545.0,Met One E-SEQ-FRM PM2.5 with VSCC,41740.0,"San Diego-Carlsbad, CA",6,California,73,San Diego,32.7895650008594,-116.944308
08/28/2023,AQS,60631007,4,3.0,ug/m3 LC,17,Chester-222 First Ave,1,100.0,88502,Acceptable PM2.5 AQI & Speciation Mass,731.0,Met-One BAM-1020 W/PM2.5 SCC,,,6,California,63,Plumas,40.3096440009309,-121.227848
01/24/2023,AQS,60370016,3,1.7,ug/m3 LC,9,Glendora,1,100.0,88502,Acceptable PM2.5 AQI & Speciation Mass,731.0,Met-One BAM-1020 W/PM2.5 SCC,31080.0,"Los Angeles-Long Beach-Anaheim, CA",6,California,37,Los Angeles,34.14435,-117.85036
02/23/2023,AQS,60250005,5,4.4,ug/m3 LC,24,Calexico-Ethel Street,1,100.0,88502,Acceptable PM2.5 AQI & Speciation Mass,810.0,Met One SASS/SuperSASS Teflon,20940.0,"El Centro, CA",6,California,25,Imperial,32.67618,-115.48307
06/21/2023,AQS,60970004,3,3.2,ug/m3 LC,18,Sebastopol,1,100.0,88101,PM2.5 - Local Conditions,170.0,Met One BAM-1020 Mass Monitor w/VSCC,42220.0,"Santa Rosa, CA",6,California,97,Sonoma,38.403765,-122.818294
03/17/2023,AQS,60731022,3,10.1,ug/m3 LC,53,El Cajon - Lexington Elementary School,1,100.0,88101,PM2.5 - Local Conditions,238.0,Teledyne T640X at 16.67 LPM,41740.0,"San Diego-Carlsbad, CA",6,California,73,San Diego,32.7895650008594,-116.944308
12/27/2023,AQS,60290018,1,0.7,ug/m3 LC,4,Ridgecrest-Ward,1,100.0,88101,PM2.5 - Local Conditions,170.0,Met One BAM-1020 Mass Monitor w/VSCC,12540.0,"Bakersfield, CA",6,California,29,Kern,35.6429431008838,-117.715066487047
05/24/2023,AQS,60719002,1,1.9,ug/m3 LC,11,Joshua Tree NP - Black Rock,1,100.0,88502,Acceptable PM2.5 AQI & Speciation Mass,707.0,"IMPROVE Module A with Cyclone Inlet-Teflon Filter, 2.2 sq. cm.",40140.0,"Riverside-San Bernardino-Ontario, CA",6,California,71,San Bernardino,34.06957,-116.38893
02/05/2023,AQS,60531003,3,6.7,ug/m3 LC,37,Salinas 3,1,100.0,88101,PM2.5 - Local Conditions,170.0,Met One BAM-1020 Mass Monitor w/VSCC,41500.0,"Salinas, CA",6,California,53,Monterey,36.6942610009043,-121.623271
02/23/2023,AQS,60251003,3,3.0,ug/m3 LC,17,El Centro-9th Street,1,100.0,88101,PM2.5 - Local Conditions,209.0,Met One BAM-1022 Mass Monitor w/ VSCC or TE-PM2.5C,20940.0,"El Centro, CA",6,California,25,Imperial,32.79222,-115.56306
05/09/2023,AQS,60010012,3,5.8,ug/m3 LC,32,Laney College,1,100.0,88101,PM2.5 - Local Conditions,170.0,Met One BAM-1020 Mass Monitor w/VSCC,41860.0,"San Francisco-Oakland-Hayward, CA",6,California,1,Alameda,37.793624,-122.263376
02/24/2023,AQS,60010007,3,1.8,ug/m3 LC,10,Livermore,1,100.0,88101,PM2.5 - Local Conditions,170.0,Met One BAM-1020 Mass Monitor w/VSCC,41860.0,"San Francisco-Oakland-Hayward, CA",6,California,1,Alameda,37.687526,-121.784217
02/07/2023,AQS,60771003,3,17.2,ug/m3 LC,66,Stockton - University Park,1,100.0,88101,PM2.5 - Local Conditions,170.0,Met One BAM-1020 Mass Monitor w/VSCC,44700.0,"Stockton-Lodi, CA",6,California,77,San Joaquin,37.961578,-121.281414
10/28/2023,AQS,60650012,3,15.1,ug/m3 LC,62,Banning Airport,1,100.0,88502,Acceptable PM2.5 AQI & Speciation Mass,731.0,Met-One BAM-1020 W/PM2.5 SCC,40140.0,"Riverside-San Bernardino-Ontario, CA",6,California,65,Riverside,33.92086,-116.85841
04/27/2023,AQS,60719004,1,13.7,ug/m3 LC,60,San Bernardino,1,100.0,88101,PM2.5 - Local Conditions,145.0,R & P Model 2025 PM-2.5 Sequential Air Sampler w/VSCC,40140.0,"Riverside-San Bernardino-Ontario, CA",6,California,71,San Bernardino,34.1066780008763,-117.274063
01/30/2023,AQS,60271023,1,6.3,ug/m3 LC,35,Bishop Tribe EMO,1,100.0,88101,PM2.5 - Local Conditions,236.0,Teledyne T640 at 5.0 LPM,13860.0,"Bishop, CA",6,California,27,Inyo,37.3621369693511,-118.417477920338
08/09/2023,AQS,60290018,1,7.1,ug/m3 LC,39,Ridgecrest-Ward,1,100.0,88101,PM2.5 - Local Conditions,170.0,Met One BAM-1020 Mass Monitor w/VSCC,12540.0,"Bakersfield, CA",6,California,29,Kern,35.6429431008838,-117.715066487047
07/02/2023,AQS,60430003,2,5.6,ug/m3 LC,31,Yosemite NP - Turtleback Dome,1,100.0,88502,Acceptable PM2.5 AQI & Speciation Mass,707.0,"IMPROVE Module A with Cyclone Inlet-Teflon Filter, 2.2 sq. cm.",,,6,California,43,Mariposa,37.71325,-119.7062
12/23/2023,AQS,60074001,3,4.6,ug/m3 LC,26,"TRAFFIC, RURAL PAVED ROAD",1,100.0,88502,Acceptable PM2.5 AQI & Speciation Mass,731.0,Met-One BAM-1020 W/PM2.5 SCC,17020.0,"Chico, CA",6,California,7,Butte,39.327563,-121.668811
10/06/2023,AQS,60710005,3,3.0,ug/m3 LC,17,Crestline,1,100.0,88502,Acceptable PM2.5 AQI & Speciation Mass,171.0,Met-one BAM-1022 W/PM2.5 SCC,40140.0,"Riverside-San Bernardino-Ontario, CA",6,California,71,San Bernardino,34.2431,-117.27235
09/06/2023,AQS,60731022,3,8.0,ug/m3 LC,44,El Cajon - Lexington Elementary School,1,100.0,88101,PM2.5 - Local Conditions,638.0,Teledyne T640X at 16.67 LPM w/Network Data Alignment enabled,41740.0,"San Diego-Carlsbad, CA",6,California,73,San Diego,32.7895650008594,-116.944308
06/20/2023,AQS,60658005,1,8.6,ug/m3 LC,48,Mira Loma (Van Buren),1,100.0,88101,PM2.5 - Local Conditions,145.0,R & P Model 2025 PM-2.5 Sequential Air Sampler w/VSCC,40140.0,"Riverside-San Bernardino-Ontario, CA",6,California,65,Riverside,33.996360000875,-117.4924
07/17/2023,AQS,60374008,3,14.6,ug/m3 LC,61,Long Beach-Route 710 Near Road,1,100.0,88101,PM2.5 - Local Conditions,170.0,Met One BAM-1020 Mass Monitor w/VSCC,31080.0,"Los Angeles-Long Beach-Anaheim, CA",6,California,37,Los Angeles,33.8596620008734,-118.200707
02/20/2023,AQS,60179001,1,4.2,ug/m3 LC,23,Lake Tahoe Community College,1,100.0,88502,Acceptable PM2.5 AQI & Speciation Mass,707.0,"IMPROVE Module A with Cyclone Inlet-Teflon Filter, 2.2 sq. cm.",40900.0,"Sacramento--Roseville--Arden-Arcade, CA",6,California,17,El Dorado,38.9248,-119.97
04/30/2023,AQS,60659001,3,6.4,ug/m3 LC,36,Lake Elsinore,1,100.0,88502,Acceptable PM2.5 AQI & Speciation Mass,731.0,Met-One BAM-1020 W/PM2.5 SCC,40140.0,"Riverside-San Bernardino-Ontario, CA",6,California,65,Riverside,33.67649,-117.33098
02/24/2023,AQS,61113001,3,3.6,ug/m3 LC,20,El Rio-Rio Mesa School #2,1,100.0,88101,PM2.5 - Local Conditions,170.0,Met One BAM-1020 Mass Monitor w/VSCC,37100.0,"Oxnard-Thousand Oaks-Ventura, CA",6,California,111,Ventura,34.25239,-119.143182
03/01/2023,AQS,60251003,3,2.6,ug/m3 LC,14,El Centro-9th Street,1,100.0,88101,PM2.5 - Local Conditions,209.0,Met One BAM-1022 Mass Monitor w/ VSCC or TE-PM2.5C,20940.0,"El Centro, CA",6,California,25,Imperial,32.79222,-115.56306
07/26/2023,AQS,60195025,3,9.9,ug/m3 LC,52,Fresno-Pacific,1,100.0,88101,PM2.5 - Local Conditions,170.0,Met One BAM-1020 Mass Monitor w/VSCC,23420.0,"Fresno, CA",6,California,19,Fresno,36.72639,-119.733
08/18/2023,AQS,60631006,3,4.2,ug/m3 LC,23,Quincy-N Church Street,1,100.0,88101,PM2.5 - Local Conditions,209.0,Met One BAM-1022 Mass Monitor w/ VSCC or TE-PM2.5C,,,6,California,63,Plumas,39.9395670009288,-120.944376
08/22/2023,AQS,60230006,3,28.9,ug/m3 LC,88,Hoopa Valley Reservation,1,100.0,88101,PM2.5 - Local Conditions,170.0,Met One BAM-1020 Mass Monitor w/VSCC,21700.0,"Eureka-Arcata-Fortuna, CA",6,California,23,Humboldt,41.0471169849594,-123.67523342371
02/08/2023,AQS,60290019,3,3.1,ug/m3 LC,17,Mojave - CA 58 Business,1,100.0,88101,PM2.5 - Local Conditions,170.0,Met One BAM-1020 Mass Monitor w/VSCC,12540.0,"Bakersfield, CA",6,California,29,Kern,35.0465280008873,-118.162833
08/28/2023,AQS,60631006,3,3.0,ug/m3 LC,17,Quincy-N Church Street,1,100.0,88101,PM2.5 - Local Conditions,209.0,Met One BAM-1022 Mass Monitor w/ VSCC or TE-PM2.5C,,,6,California,63,Plumas,39.9395670009288,-120.944376
06/04/2023,AQS,60270002,21,4.2,ug/m3 LC,23,White Mountain Research Center - Owens Valley Lab,1,100.0,88101,PM2.5 - Local Conditions,738.0,Teledyne T640X at 16.67 LPM (Corrected),13860.0,"Bishop, CA",6,California,27,Inyo,37.360684,-118.330783
06/17/2023,AQS,60470003,3,6.0,ug/m3 LC,33,Merced-Coffee,1,100.0,88101,PM2.5 - Local Conditions,170.0,Met One BAM-1020 Mass Monitor w/VSCC,32900.0,"Merced, CA",6,California,47,Merced,37.281853,-120.433671
04/26/2023,AQS,60010015,3,7.9,ug/m3 LC,44,Pleasanton - Owens Ct,1,100.0,88101,PM2.5 - Local Conditions,170.0,Met One BAM-1020 Mass Monitor w/VSCC,41860.0,"San Francisco-Oakland-Hayward, CA",6,California,1,Alameda,37.7012220009132,-121.903019
06/21/2023,AQS,60675003,3,3.6,ug/m3 LC,20,Sloughhouse,1,100.0,88101,PM2.5 - Local Conditions,170.0,Met One BAM-1020 Mass Monitor w/VSCC,40900.0,"Sacramento--Roseville--Arden-Arcade, CA",6,California,67,Sacramento,38.494475,-121.211131
02/20/2023,AQS,60270002,1,1.5,ug/m3 LC,8,White Mountain Research Center - Owens Valley Lab,1,100.0,88502,Acceptable PM2.5 AQI & Speciation Mass,707.0,"IMPROVE Module A with Cyclone Inlet-Teflon Filter, 2.2 sq. cm.",13860.0,"Bishop, CA",6,California,27,Inyo,37.360684,-118.330783
03/07/2023,AQS,60271033,22,1.8,ug/m3 LC,10,Stn.1 Big Pine Paiute site,1,100.0,88101,PM2.5 - Local Conditions,736.0,Teledyne T640 at 5.0 LPM (Corrected),13860.0,"Bishop, CA",6,California,27,Inyo,37.155494,-118.293547
05/23/2023,AQS,60470003,3,6.2,ug/m3 LC,34,Merced-Coffee,1,100.0,88101,PM2.5 - Local Conditions,170.0,Met One BAM-1020 Mass Monitor w/VSCC,32900.0,"Merced, CA",6,California,47,Merced,37.281853,-120.433671
03/19/2023,AQS,60658005,2,9.9,ug/m3 LC,52,Mira Loma (Van Buren),1,100.0,88101,PM2.5 - Local Conditions,145.0,R & P Model 2025 PM-2.5 Sequential Air Sampler w/VSCC,40140.0,"Riverside-San Bernardino-Ontario, CA",6,California,65,Riverside,33.996360000875,-117.4924
02/02/2023,AQS,60850005,1,9.4,ug/m3 LC,52,San Jose - Jackson,1,100.0,88101,PM2.5 - Local Conditions,145.0,R & P Model 2025 PM-2.5 Sequential Air Sampler w/VSCC,41940.0,"San Jose-Sunnyvale-Santa Clara, CA",6,California,85,Santa Clara,37.348497,-121.894898
03/12/2023,AQS,60731006,23,3.1,ug/m3 LC,17,Alpine,1,100.0,88101,PM2.5 - Local Conditions,738.0,Teledyne T640X at 16.67 LPM (Corrected),41740.0,"San Diego-Carlsbad, CA",6,California,73,San Diego,32.8423180008601,-116.768293
11/11/2023,AQS,60870007,3,9.2,ug/m3 LC,51,Santa Cruz,1,100.0,88101,PM2.5 - Local Conditions,170.0,Met One BAM-1020 Mass Monitor w/VSCC,42100.0,"Santa Cruz-Watsonville, CA",6,California,87,Santa Cruz,36.983320000907,-121.98822
08/14/2023,AQS,60650012,3,10.2,ug/m3 LC,53,Banning Airport,1,100.0,88502,Acceptable PM2.5 AQI & Speciation Mass,731.0,Met-One BAM-1020 W/PM2.5 SCC,40140.0,"Riverside-San Bernardino-Ontario, CA",6,California,65,Riverside,33.92086,-116.85841
12/04/2023,AQS,60670010,3,10.2,ug/m3 LC,53,Sacramento-1309 T Street,1,100.0,88101,PM2.5 - Local Conditions,170.0,Met One BAM-1020 Mass Monitor w/VSCC,40900.0,"Sacramento--Roseville--Arden-Arcade, CA",6,California,67,Sacramento,38.56844,-121.49311
11/11/2023,AQS,60850005,3,17.3,ug/m3 LC,66,San Jose - Jackson,1,100.0,88101,PM2.5 - Local Conditions,170.0,Met One BAM-1020 Mass Monitor w/VSCC,41940.0,"San Jose-Sunnyvale-Santa Clara, CA",6,California,85,Santa Clara,37.348497,-121.894898
02/17/2023,AQS,60250007,3,2.0,ug/m3 LC,11,Brawley-220 Main Street,1,100.0,88101,PM2.5 - Local Conditions,209.0,Met One BAM-1022 Mass Monitor w/ VSCC or TE-PM2.5C,20940.0,"El Centro, CA",6,California,25,Imperial,32.97833,-115.53917
07/26/2023,AQS,60850005,1,9.4,ug/m3 LC,52,San Jose - Jackson,1,100.0,88101,PM2.5 - Local Conditions,145.0,R & P Model 2025 PM-2.5 Sequential Air Sampler w/VSCC,41940.0,"San Jose-Sunnyvale-Santa Clara, CA",6,California,85,Santa Clara,37.348497,-121.894898
08/03/2023,AQS,60371201,3,11.1,ug/m3 LC,55,Reseda,1,100.0,88502,Acceptable PM2.5 AQI & Speciation Mass,731.0,Met-One BAM-1020 W/PM2.5 SCC,31080.0,"Los Angeles-Long Beach-Anaheim, CA",6,California,37,Los Angeles,34.19925,-118.53276
06/08/2023,AQS,60179002,1,3.9,ug/m3 LC,22,,1,100.0,88502,Acceptable PM2.5 AQI & Speciation Mass,707.0,"IMPROVE Module A with Cyclone Inlet-Teflon Filter, 2.2 sq. cm.",40900.0,"Sacramento--Roseville--Arden-Arcade, CA",6,California,17,El Dorado,38.98,-120.1
04/27/2023,AQS,61113001,3,5.5,ug/m3 LC,31,El Rio-Rio Mesa School #2,1,100.0,88101,PM2.5 - Local Conditions,170.0,Met One BAM-1020 Mass Monitor w/VSCC,37100.0,"Oxnard-Thousand Oaks-Ventura, CA",6,California,111,Ventura,34.25239,-119.143182
02/25/2023,AQS,60773005,3,0.0,ug/m3 LC,0,Tracy-Airport,1,100.0,88502,Acceptable PM2.5 AQI & Speciation Mass,731.0,Met-One BAM-1020 W/PM2.5 SCC,44700.0,"Stockton-Lodi, CA",6,California,77,San Joaquin,37.682635,-121.442495
08/11/2023,AQS,60070008,3,7.3,ug/m3 LC,41,Chico-East Avenue,1,100.0,88101,PM2.5 - Local Conditions,170.0,Met One BAM-1020 Mass Monitor w/VSCC,17020.0,"Chico, CA",6,California,7,Butte,39.76168,-121.84047
11/22/2023,AQS,60531003,3,7.6,ug/m3 LC,42,Salinas 3,1,100.0,88101,PM2.5 - Local Conditions,170.0,Met One BAM-1020 Mass Monitor w/VSCC,41500.0,"Salinas, CA",6,California,53,Monterey,36.6942610009043,-121.623271
11/15/2023,AQS,60111002,3,8.9,ug/m3 LC,49,Colusa-Sunrise Blvd,1,100.0,88101,PM2.5 - Local Conditions,170.0,Met One BAM-1020 Mass Monitor w/VSCC,,,6,California,11,Colusa,39.18919,-121.99887
08/05/2023,AQS,60431001,3,15.7,ug/m3 LC,63,Yosemite NP-Yosemite Village Vistor Center,1,100.0,88502,Acceptable PM2.5 AQI & Speciation Mass,731.0,Met-One BAM-1020 W/PM2.5 SCC,,,6,California,43,Mariposa,37.748707,-119.587094
08/21/2023,AQS,60658005,3,2.2,ug/m3 LC,12,Mira Loma (Van Buren),1,100.0,88101,PM2.5 - Local Conditions,170.0,Met One BAM-1020 Mass Monitor w/VSCC,40140.0,"Riverside-San Bernardino-Ontario, CA",6,California,65,Riverside,33.996360000875,-117.4924
09/01/2023,AQS,60658005,1,15.1,ug/m3 LC,62,Mira Loma (Van Buren),1,100.0,88101,PM2.5 - Local Conditions,145.0,R & P Model 2025 PM-2.5 Sequential Air Sampler w/VSCC,40140.0,"Riverside-San Bernardino-Ontario, CA",6,California,65,Riverside,33.996360000875,-117.4924
02/07/2023,AQS,60710306,1,2.7,ug/m3 LC,15,Victorville-Park Avenue,1,100.0,88101,PM2.5 - Local Conditions,170.0,Met One BAM-1020 Mass Monitor w/VSCC,40140.0,"Riverside-San Bernardino-Ontario, CA",6,California,71,San Bernardino,34.5109611108812,-117.32554
01/03/2023,AQS,60832011,1,1.0,ug/m3 LC,6,Goleta,1,100.0,88101,PM2.5 - Local Conditions,170.0,Met One BAM-1020 Mass Monitor w/VSCC,42200.0,"Santa Maria-Santa Barbara, CA",6,California,83,Santa Barbara,34.4455100008805,-119.8284
01/13/2023,AQS,60659001,3,3.4,ug/m3 LC,19,Lake Elsinore,1,100.0,88502,Acceptable PM2.5 AQI & Speciation Mass,731.0,Met-One BAM-1020 W/PM2.5 SCC,40140.0,"Riverside-San Bernardino-Ontario, CA",6,California,65,Riverside,33.67649,-117.33098
01/09/2023,AQS,60371302,3,9.8,ug/m3 LC,52,Compton,1,100.0,88502,Acceptable PM2.5 AQI & Speciation Mass,733.0,Met-One BAM W/PM2.5 VSCC,31080.0,"Los Angeles-Long Beach-Anaheim, CA",6,California,37,Los Angeles,33.9013890008739,-118.205
05/18/2023,AQS,61072010,3,15.8,ug/m3 LC,63,Porterville,1,100.0,88502,Acceptable PM2.5 AQI & Speciation Mass,731.0,Met-One BAM-1020 W/PM2.5 SCC,47300.0,"Visalia-Porterville, CA",6,California,107,Tulare,36.0318310008979,-119.055018
12/17/2023,AQS,60371103,1,9.8,ug/m3 LC,52,Los Angeles-North Main Street,1,100.0,88101,PM2.5 - Local Conditions,145.0,R & P Model 2025 PM-2.5 Sequential Air Sampler w/VSCC,31080.0,"Los Angeles-Long Beach-Anaheim, CA",6,California,37,Los Angeles,34.0665900008759,-118.22688
10/07/2023,AQS,60850005,3,9.7,ug/m3 LC,52,San Jose - Jackson,1,100.0,88101,PM2.5 - Local Conditions,170.0,Met One BAM-1020 Mass Monitor w/VSCC,41940.0,"San Jose-Sunnyvale-Santa Clara, CA",6,California,85,Santa Clara,37.348497,-121.894898
11/06/2023,AQS,60650016,3,6.4,ug/m3 LC,36,Temecula,1,100.0,88502,Acceptable PM2.5 AQI & Speciation Mass,731.0,Met-One BAM-1020 W/PM2.5 SCC,40140.0,"Riverside-San Bernardino-Ontario, CA",6,California,65,Riverside,33.5830180008699,-117.072202
08/11/2023,AQS,61070009,1,8.9,ug/m3 LC,49,Sequoia & Kings Canyon NPs - Ash Mountain,1,100.0,88101,PM2.5 - Local Conditions,170.0,Met One BAM-1020 Mass Monitor w/VSCC,47300.0,"Visalia-Porterville, CA",6,California,107,Tulare,36.48947,-118.82915
03/30/2023,AQS,60890004,3,1.9,ug/m3 LC,11,Redding - Health Department,1,100.0,88101,PM2.5 - Local Conditions,209.0,Met One BAM-1022 Mass Monitor w/ VSCC or TE-PM2.5C,39820.0,"Redding, CA",6,California,89,Shasta,40.550130000932,-122.38092
10/01/2023,AQS,60659001,3,1.1,ug/m3 LC,6,Lake Elsinore,1,100.0,88502,Acceptable PM2.5 AQI & Speciation Mass,731.0,Met-One BAM-1020 W/PM2.5 SCC,40140.0,"Riverside-San Bernardino-Ontario, CA",6,California,65,Riverside,33.67649,-117.33098
08/28/2023,AQS,60271023,21,2.6,ug/m3 LC,14,Bishop Tribe EMO,1,100.0,88101,PM2.5 - Local Conditions,736.0,Teledyne T640 at 5.0 LPM (Corrected),13860.0,"Bishop, CA",6,California,27,Inyo,37.3621369693511,-118.417477920338
01/29/2023,AQS,61050002,1,7.8,ug/m3 LC,43,Weaverville-Courthouse,1,100.0,88502,Acceptable PM2.5 AQI & Speciation Mass,731.0,Met-One BAM-1020 W/PM2.5 SCC,,,6,California,105,Trinity,40.73475,-122.9412
08/14/2023,AQS,60250005,3,5.2,ug/m3 LC,29,Calexico-Ethel Street,1,100.0,88101,PM2.5 - Local Conditions,170.0,Met One BAM-1020 Mass Monitor w/VSCC,20940.0,"El Centro, CA",6,California,25,Imperial,32.67618,-115.48307
08/07/2023,AQS,60379035,1,4.6,ug/m3 LC,26,Lancaster - Fairgrounds,1,100.0,88101,PM2.5 - Local Conditions,170.0,Met One BAM-1020 Mass Monitor w/VSCC,31080.0,"Los Angeles-Long Beach-Anaheim, CA",6,California,37,Los Angeles,34.725389,-118.178601
11/24/2023,AQS,60932001,3,4.4,ug/m3 LC,24,Yreka,1,100.0,88101,PM2.5 - Local Conditions,170.0,Met One BAM-1020 Mass Monitor w/VSCC,,,6,California,93,Siskiyou,41.726892,-122.633579
02/02/2023,AQS,60658005,3,11.5,ug/m3 LC,55,Mira Loma (Van Buren),1,100.0,88101,PM2.5 - Local Conditions,170.0,Met One BAM-1020 Mass Monitor w/VSCC,40140.0,"Riverside-San Bernardino-Ontario, CA",6,California,65,Riverside,33.996360000875,-117.4924
07/01/2023,AQS,61010003,4,10.3,ug/m3 LC,53,Yuba City,1,100.0,88101,PM2.5 - Local Conditions,170.0,Met One BAM-1020 Mass Monitor w/VSCC,49700.0,"Yuba City, CA",6,California,101,Sutter,39.1387725442464,-121.618548986224
06/25/2023,AQS,60270002,21,5.1,ug/m3 LC,28,White Mountain Research Center - Owens Valley Lab,1,100.0,88101,PM2.5 - Local Conditions,738.0,Teledyne T640X at 16.67 LPM (Corrected),13860.0,"Bishop, CA",6,California,27,Inyo,37.360684,-118.330783
01/15/2023,AQS,60010013,3,4.0,ug/m3 LC,22,Berkeley- Aquatic Park,1,100.0,88101,PM2.5 - Local Conditions,170.0,Met One BAM-1020 Mass Monitor w/VSCC,41860.0,"San Francisco-Oakland-Hayward, CA",6,California,1,Alameda,37.8647670009145,-122.302741
08/25/2023,AQS,60430003,1,6.6,ug/m3 LC,37,Yosemite NP - Turtleback Dome,1,100.0,88502,Acceptable PM2.5 AQI & Speciation Mass,707.0,"IMPROVE Module A with Cyclone Inlet-Teflon Filter, 2.2 sq. cm.",,,6,California,43,Mariposa,37.71325,-119.7062
02/18/2023,AQS,60670012,3,12.6,ug/m3 LC,58,Folsom-Natoma St.,1,100.0,88101,PM2.5 - Local Conditions,170.0,Met One BAM-1020 Mass Monitor w/VSCC,40900.0,"Sacramento--Roseville--Arden-Arcade, CA",6,California,67,Sacramento,38.683304,-121.164457
08/02/2023,AQS,60374009,3,12.0,ug/m3 LC,56,Signal Hill (LBSH),1,100.0,88101,PM2.5 - Local Conditions,170.0,Met One BAM-1020 Mass Monitor w/VSCC,31080.0,"Los Angeles-Long Beach-Anaheim, CA",6,California,37,Los Angeles,33.7937130008725,-118.171019
01/18/2023,AirNow,60631006,1,5.7,ug/m3 LC,32,Quincy-N Church Street,1,100.0,88101,PM2.5 - Local Conditions,,,,,6,California,63,Plumas,39.9395670009288,-120.944376
11/07/2023,AQS,60072003,3,3.4,ug/m3 LC,19,Paradise-Clark,1,100.0,88502,Acceptable PM2.5 AQI & Speciation Mass,731.0,Met-One BAM-1020 W/PM2.5 SCC,17020.0,"Chico, CA",6,California,7,Butte,39.75786,-121.60791
10/09/2023,AQS,60839001,1,7.2,ug/m3 LC,40,,1,100.0,88101,PM2.5 - Local Conditions,209.0,Met One BAM-1022 Mass Monitor w/ VSCC or TE-PM2.5C,42200.0,"Santa Maria-Santa Barbara, CA",6,California,83,Santa Barbara,34.39424,-119.514721
12/11/2023,AQS,60150002,1,1.7,ug/m3 LC,9,Redwood NP,1,100.0,88502,Acceptable PM2.5 AQI & Speciation Mass,707.0,"IMPROVE Module A with Cyclone Inlet-Teflon Filter, 2.2 sq. cm.",18860.0,"Crescent City, CA",6,California,15,Del Norte,41.560952388,-124.083964246
11/02/2023,AQS,60150007,1,6.6,ug/m3 LC,37,Crescent City-Crescent Elk School,1,100.0,88502,Acceptable PM2.5 AQI & Speciation Mass,731.0,Met-One BAM-1020 W/PM2.5 SCC,18860.0,"Crescent City, CA",6,California,15,Del Norte,41.7561300009374,-124.20347
08/19/2023,AQS,60379035,1,4.0,ug/m3 LC,22,Lancaster - Fairgrounds,1,100.0,88101,PM2.5 - Local Conditions,170.0,Met One BAM-1020 Mass Monitor w/VSCC,31080.0,"Los Angeles-Long Beach-Anaheim, CA",6,California,37,Los Angeles,34.725389,-118.178601
07/02/2023,AQS,61070009,1,12.9,ug/m3 LC,58,Sequoia & Kings Canyon NPs - Ash Mountain,1,100.0,88101,PM2.5 - Local Conditions,170.0,Met One BAM-1020 Mass Monitor w/VSCC,47300.0,"Visalia-Porterville, CA",6,California,107,Tulare,36.48947,-118.82915
07/07/2023,AQS,60111002,3,9.0,ug/m3 LC,50,Colusa-Sunrise Blvd,1,100.0,88101,PM2.5 - Local Conditions,170.0,Met One BAM-1020 Mass Monitor w/VSCC,,,6,California,11,Colusa,39.18919,-121.99887
03/07/2023,AQS,61130004,3,1.8,ug/m3 LC,10,Davis-UCD Campus,1,100.0,88502,Acceptable PM2.5 AQI & Speciation Mass,731.0,Met-One BAM-1020 W/PM2.5 SCC,40900.0,"Sacramento--Roseville--Arden-Arcade, CA",6,California,113,Yolo,38.53445,-121.7734
08/25/2023,AQS,60431001,3,11.4,ug/m3 LC,55,Yosemite NP-Yosemite Village Vistor Center,1,100.0,88502,Acceptable PM2.5 AQI & Speciation Mass,731.0,Met-One BAM-1020 W/PM2.5 SCC,,,6,California,43,Mariposa,37.748707,-119.587094
07/03/2023,AQS,60190500,1,11.3,ug/m3 LC,55,Table Mountain Air Monitoring Site,1,100.0,88101,PM2.5 - Local Conditions,170.0,Met One BAM-1020 Mass Monitor w/VSCC,23420.0,"Fresno, CA",6,California,19,Fresno,36.9851185574381,-119.658339349936
06/18/2023,AQS,60731022,23,9.7,ug/m3 LC,52,El Cajon - Lexington Elementary School,1,100.0,88101,PM2.5 - Local Conditions,738.0,Teledyne T640X at 16.67 LPM (Corrected),41740.0,"San Diego-Carlsbad, CA",6,California,73,San Diego,32.7895650008594,-116.944308
12/27/2023,AQS,60110007,1,15.8,ug/m3 LC,63,Cortina Indian Rancheria,1,100.0,88101,PM2.5 - Local Conditions,170.0,Met One BAM-1020 Mass Monitor w/VSCC,,,6,California,11,Colusa,39.0212210009231,-122.281803
05/14/2023,AQS,60010012,3,6.3,ug/m3 LC,35,Laney College,1,100.0,88101,PM2.5 - Local Conditions,170.0,Met One BAM-1020 Mass Monitor w/VSCC,41860.0,"San Francisco-Oakland-Hayward, CA",6,California,1,Alameda,37.793624,-122.263376
07/23/2023,AQS,60292009,3,9.4,ug/m3 LC,52,Lebec,1,100.0,88502,Acceptable PM2.5 AQI & Speciation Mass,731.0,Met-One BAM-1020 W/PM2.5 SCC,12540.0,"Bakersfield, CA",6,California,29,Kern,34.841567,-118.860588
02/27/2023,AQS,60570005,3,1.5,ug/m3 LC,8,Grass Valley-Litton Building,1,100.0,88101,PM2.5 - Local Conditions,209.0,Met One BAM-1022 Mass Monitor w/ VSCC or TE-PM2.5C,46020.0,"Truckee-Grass Valley, CA",6,California,57,Nevada,39.2334770009245,-121.055608
09/29/2023,AQS,60290016,1,8.9,ug/m3 LC,49,Bakersfield-Airport (Planz),1,100.0,88101,PM2.5 - Local Conditions,145.0,R & P Model 2025 PM-2.5 Sequential Air Sampler w/VSCC,12540.0,"Bakersfield, CA",6,California,29,Kern,35.324636,-118.997627
05/29/2023,AQS,61130004,3,5.2,ug/m3 LC,29,Davis-UCD Campus,1,100.0,88502,Acceptable PM2.5 AQI & Speciation Mass,731.0,Met-One BAM-1020 W/PM2.5 SCC,40900.0,"Sacramento--Roseville--Arden-Arcade, CA",6,California,113,Yolo,38.53445,-121.7734
08/21/2023,AQS,60731006,3,6.6,ug/m3 LC,37,Alpine,1,100.0,88101,PM2.5 - Local Conditions,638.0,Teledyne T640X at 16.67 LPM w/Network Data Alignment enabled,41740.0,"San Diego-Carlsbad, CA",6,California,73,San Diego,32.8423180008601,-116.768293
01/13/2023,AQS,60731201,21,2.2,ug/m3 LC,12,Pala Airpad,1,100.0,88101,PM2.5 - Local Conditions,736.0,Teledyne T640 at 5.0 LPM (Corrected),41740.0,"San Diego-Carlsbad, CA",6,California,73,San Diego,33.3625928342781,-117.090229999878
01/24/2023,AQS,60675003,3,11.5,ug/m3 LC,55,Sloughhouse,1,100.0,88101,PM2.5 - Local Conditions,170.0,Met One BAM-1020 Mass Monitor w/VSCC,40900.0,"Sacramento--Roseville--Arden-Arcade, CA",6,California,67,Sacramento,38.494475,-121.211131
11/11/2023,AQS,60610003,1,17.8,ug/m3 LC,67,Auburn-Atwood,1,100.0,88101,PM2.5 - Local Conditions,170.0,Met One BAM-1020 Mass Monitor w/VSCC,40900.0,"Sacramento--Roseville--Arden-Arcade, CA",6,California,61,Placer,38.93568,-121.09959
12/21/2023,AQS,61010003,3,10.7,ug/m3 LC,54,Yuba City,1,100.0,88101,PM2.5 - Local Conditions,170.0,Met One BAM-1020 Mass Monitor w/VSCC,49700.0,"Yuba City, CA",6,California,101,Sutter,39.1387725442464,-121.618548986224
11/29/2023,AQS,60670012,4,9.1,ug/m3 LC,51,Folsom-Natoma St.,1,100.0,88101,PM2.5 - Local Conditions,170.0,Met One BAM-1020 Mass Monitor w/VSCC,40900.0,"Sacramento--Roseville--Arden-Arcade, CA",6,California,67,Sacramento,38.683304,-121.164457
09/22/2023,AQS,60131004,3,35.2,ug/m3 LC,100,San Pablo,1,100.0,88101,PM2.5 - Local Conditions,170.0,Met One BAM-1020 Mass Monitor w/VSCC,41860.0,"San Francisco-Oakland-Hayward, CA",6,California,13,Contra Costa,37.9604,-122.356811
02/10/2023,AQS,60374010,3,7.8,ug/m3 LC,43,North Hollywood (NOHO),1,100.0,88502,Acceptable PM2.5 AQI & Speciation Mass,731.0,Met-One BAM-1020 W/PM2.5 SCC,31080.0,"Los Angeles-Long Beach-Anaheim, CA",6,California,37,Los Angeles,34.1819770008773,-118.363036
07/16/2023,AQS,61010003,4,11.3,ug/m3 LC,55,Yuba City,1,100.0,88101,PM2.5 - Local Conditions,170.0,Met One BAM-1020 Mass Monitor w/VSCC,49700.0,"Yuba City, CA",6,California,101,Sutter,39.1387725442464,-121.618548986224
04/21/2023,AQS,60271023,21,2.5,ug/m3 LC,14,Bishop Tribe EMO,1,100.0,88101,PM2.5 - Local Conditions,736.0,Teledyne T640 at 5.0 LPM (Corrected),13860.0,"Bishop, CA",6,California,27,Inyo,37.3621369693511,-118.417477920338
01/24/2023,AQS,60659001,3,3.1,ug/m3 LC,17,Lake Elsinore,1,100.0,88502,Acceptable PM2.5 AQI & Speciation Mass,731.0,Met-One BAM-1020 W/PM2.5 SCC,40140.0,"Riverside-San Bernardino-Ontario, CA",6,California,65,Riverside,33.67649,-117.33098
04/23/2023,AQS,60431001,3,3.8,ug/m3 LC,21,Yosemite NP-Yosemite Village Vistor Center,1,100.0,88502,Acceptable PM2.5 AQI & Speciation Mass,731.0,Met-One BAM-1020 W/PM2.5 SCC,,,6,California,43,Mariposa,37.748707,-119.587094
02/16/2023,AQS,60850006,3,4.5,ug/m3 LC,25,San Jose - Knox Avenue,1,100.0,88101,PM2.5 - Local Conditions,170.0,Met One BAM-1020 Mass Monitor w/VSCC,41940.0,"San Jose-Sunnyvale-Santa Clara, CA",6,California,85,Santa Clara,37.338135,-121.849783
05/16/2023,AQS,60510005,24,4.8,ug/m3 LC,27,Lee Vining,1,100.0,88101,PM2.5 - Local Conditions,738.0,Teledyne T640X at 16.67 LPM (Corrected),,,6,California,51,Mono,37.962069,-119.120278
10/06/2023,AQS,60850005,3,10.3,ug/m3 LC,53,San Jose - Jackson,1,100.0,88101,PM2.5 - Local Conditions,170.0,Met One BAM-1020 Mass Monitor w/VSCC,41940.0,"San Jose-Sunnyvale-Santa Clara, CA",6,California,85,Santa Clara,37.348497,-121.894898
02/22/2023,AQS,60710005,3,2.7,ug/m3 LC,15,Crestline,1,100.0,88502,Acceptable PM2.5 AQI & Speciation Mass,171.0,Met-one BAM-1022 W/PM2.5 SCC,40140.0,"Riverside-San Bernardino-Ontario, CA",6,California,71,San Bernardino,34.2431,-117.27235
03/27/2023,AQS,60371103,1,6.7,ug/m3 LC,37,Los Angeles-North Main Street,1,100.0,88101,PM2.5 - Local Conditions,145.0,R & P Model 2025 PM-2.5 Sequential Air Sampler w/VSCC,31080.0,"Los Angeles-Long Beach-Anaheim, CA",6,California,37,Los Angeles,34.0665900008759,-118.22688
11/08/2023,AQS,60250005,5,6.2,ug/m3 LC,34,Calexico-Ethel Street,1,100.0,88502,Acceptable PM2.5 AQI & Speciation Mass,810.0,Met One SASS/SuperSASS Teflon,20940.0,"El Centro, CA",6,California,25,Imperial,32.67618,-115.48307
01/16/2023,AQS,60718001,3,7.7,ug/m3 LC,43,Big Bear,1,100.0,88101,PM2.5 - Local Conditions,209.0,Met One BAM-1022 Mass Monitor w/ VSCC or TE-PM2.5C,40140.0,"Riverside-San Bernardino-Ontario, CA",6,California,71,San Bernardino,34.2646400008783,-116.86147
08/08/2023,AQS,60192009,3,4.4,ug/m3 LC,24,Tranquillity,1,100.0,88101,PM2.5 - Local Conditions,170.0,Met One BAM-1020 Mass Monitor w/VSCC,23420.0,"Fresno, CA",6,California,19,Fresno,36.6342250009037,-120.382331
12/10/2023,AirNow,60670012,3,12.2,ug/m3 LC,57,Folsom-Natoma St.,1,100.0,88101,PM2.5 - Local Conditions,,,40900.0,"Sacramento--Roseville--Arden-Arcade, CA",6,California,67,Sacramento,38.683304,-121.164457
07/11/2023,AQS,60150007,1,3.1,ug/m3 LC,17,Crescent City-Crescent Elk School,1,100.0,88502,Acceptable PM2.5 AQI & Speciation Mass,731.0,Met-One BAM-1020 W/PM2.5 SCC,18860.0,"Crescent City, CA",6,California,15,Del Norte,41.7561300009374,-124.20347
03/25/2023,AQS,60610004,3,9.0,ug/m3 LC,50,Colfax-City Hall,1,100.0,88502,Acceptable PM2.5 AQI & Speciation Mass,731.0,Met-One BAM-1020 W/PM2.5 SCC,40900.0,"Sacramento--Roseville--Arden-Arcade, CA",6,California,61,Placer,39.100174496,-120.953831711
12/05/2023,AQS,61130004,3,9.7,ug/m3 LC,52,Davis-UCD Campus,1,100.0,88502,Acceptable PM2.5 AQI & Speciation Mass,731.0,Met-One BAM-1020 W/PM2.5 SCC,40900.0,"Sacramento--Roseville--Arden-Arcade, CA",6,California,113,Yolo,38.53445,-121.7734
07/03/2023,AQS,60792007,1,2.2,ug/m3 LC,12,CDF,1,100.0,88101,PM2.5 - Local Conditions,170.0,Met One BAM-1020 Mass Monitor w/VSCC,42020.0,"San Luis Obispo-Paso Robles-Arroyo Grande, CA",6,California,79,San Luis Obispo,35.0467300008874,-120.58777
03/07/2023,AQS,60731017,1,4.1,ug/m3 LC,23,San Diego -Rancho Carmel Drive,1,100.0,88101,PM2.5 - Local Conditions,545.0,Met One E-SEQ-FRM PM2.5 with VSCC,41740.0,"San Diego-Carlsbad, CA",6,California,73,San Diego,32.985428,-117.082198
04/02/2023,AQS,60670012,3,2.5,ug/m3 LC,14,Folsom-Natoma St.,1,100.0,88101,PM2.5 - Local Conditions,170.0,Met One BAM-1020 Mass Monitor w/VSCC,40900.0,"Sacramento--Roseville--Arden-Arcade, CA",6,California,67,Sacramento,38.683304,-121.164457
04/24/2023,AQS,60250007,3,10.2,ug/m3 LC,53,Brawley-220 Main Street,1,100.0,88101,PM2.5 - Local Conditions,209.0,Met One BAM-1022 Mass Monitor w/ VSCC or TE-PM2.5C,20940.0,"El Centro, CA",6,California,25,Imperial,32.97833,-115.53917
09/01/2023,AQS,60710027,1,16.5,ug/m3 LC,65,Ontario-Route 60 Near Road,1,100.0,88101,PM2.5 - Local Conditions,145.0,R & P Model 2025 PM-2.5 Sequential Air Sampler w/VSCC,40140.0,"Riverside-San Bernardino-Ontario, CA",6,California,71,San Bernardino,34.030833,-117.61722
11/04/2023,AQS,60150007,1,1.6,ug/m3 LC,9,Crescent City-Crescent Elk School,1,100.0,88502,Acceptable PM2.5 AQI & Speciation Mass,731.0,Met-One BAM-1020 W/PM2.5 SCC,18860.0,"Crescent City, CA",6,California,15,Del Norte,41.7561300009374,-124.20347
01/26/2023,AQS,60731008,3,2.8,ug/m3 LC,16,Camp Pendleton,1,100.0,88101,PM2.5 - Local Conditions,238.0,Teledyne T640X at 16.67 LPM,41740.0,"San Diego-Carlsbad, CA",6,California,73,San Diego,33.217046,-117.396249
04/10/2023,AQS,60010009,3,4.9,ug/m3 LC,27,Oakland,1,100.0,88101,PM2.5 - Local Conditions,170.0,Met One BAM-1020 Mass Monitor w/VSCC,41860.0,"San Francisco-Oakland-Hayward, CA",6,California,1,Alameda,37.743065,-122.169935
08/23/2023,AQS,60571001,5,6.0,ug/m3 LC,33,Truckee-Fire Station,1,100.0,88502,Acceptable PM2.5 AQI & Speciation Mass,733.0,Met-One BAM W/PM2.5 VSCC,46020.0,"Truckee-Grass Valley, CA",6,California,57,Nevada,39.3278300009251,-120.184592
10/23/2023,AQS,60530008,3,2.1,ug/m3 LC,12,King City 2,1,100.0,88101,PM2.5 - Local Conditions,170.0,Met One BAM-1020 Mass Monitor w/VSCC,41500.0,"Salinas, CA",6,California,53,Monterey,36.2092860008996,-121.126371
07/21/2023,AQS,60192009,3,8.9,ug/m3 LC,49,Tranquillity,1,100.0,88101,PM2.5 - Local Conditions,170.0,Met One BAM-1020 Mass Monitor w/VSCC,23420.0,"Fresno, CA",6,California,19,Fresno,36.6342250009037,-120.382331
04/28/2023,AQS,60192008,3,7.1,ug/m3 LC,39,Huron,1,100.0,88502,Acceptable PM2.5 AQI & Speciation Mass,731.0,Met-One BAM-1020 W/PM2.5 SCC,23420.0,"Fresno, CA",6,California,19,Fresno,36.198672,-120.101096
12/24/2023,AQS,61131003,3,9.2,ug/m3 LC,51,Woodland-Gibson Road,1,100.0,88101,PM2.5 - Local Conditions,170.0,Met One BAM-1020 Mass Monitor w/VSCC,40900.0,"Sacramento--Roseville--Arden-Arcade, CA",6,California,113,Yolo,38.66121,-121.73269
11/25/2023,AQS,61110009,3,3.0,ug/m3 LC,17,Piru - Pacific,1,100.0,88101,PM2.5 - Local Conditions,170.0,Met One BAM-1020 Mass Monitor w/VSCC,37100.0,"Oxnard-Thousand Oaks-Ventura, CA",6,California,111,Ventura,34.404281,-118.80998
12/18/2023,AQS,60371103,1,12.4,ug/m3 LC,57,Los Angeles-North Main Street,1,100.0,88101,PM2.5 - Local Conditions,145.0,R & P Model 2025 PM-2.5 Sequential Air Sampler w/VSCC,31080.0,"Los Angeles-Long Beach-Anaheim, CA",6,California,37,Los Angeles,34.0665900008759,-118.22688
11/08/2023,AQS,60831009,1,4.3,ug/m3 LC,24,Santa Maria,1,100.0,88101,PM2.5 - Local Conditions,170.0,Met One BAM-1020 Mass Monitor w/VSCC,42200.0,"Santa Maria-Santa Barbara, CA",6,California,83,Santa Barbara,34.8906666667,-120.4328444444
01/08/2023,AQS,60730077,23,2.2,ug/m3 LC,12,Campo Indian Reservation,1,100.0,88101,PM2.5 - Local Conditions,736.0,Teledyne T640 at 5.0 LPM (Corrected),41740.0,"San Diego-Carlsbad, CA",6,California,73,San Diego,32.6509000008575,-116.365
03/16/2023,AQS,60010013,3,9.5,ug/m3 LC,52,Berkeley- Aquatic Park,1,100.0,88101,PM2.5 - Local Conditions,170.0,Met One BAM-1020 Mass Monitor w/VSCC,41860.0,"San Francisco-Oakland-Hayward, CA",6,California,1,Alameda,37.8647670009145,-122.302741
04/29/2023,AQS,60792020,1,0.3,ug/m3 LC,2,SLO Roberto,1,100.0,88101,PM2.5 - Local Conditions,170.0,Met One BAM-1020 Mass Monitor w/VSCC,42020.0,"San Luis Obispo-Paso Robles-Arroyo Grande, CA",6,California,79,San Luis Obispo,35.2595015184308,-120.644719880058
11/12/2023,AQS,60470003,3,14.2,ug/m3 LC,61,Merced-Coffee,1,100.0,88101,PM2.5 - Local Conditions,170.0,Met One BAM-1020 Mass Monitor w/VSCC,32900.0,"Merced, CA",6,California,47,Merced,37.281853,-120.433671
08/03/2023,AQS,60658001,3,9.9,ug/m3 LC,52,Rubidoux,1,100.0,88101,PM2.5 - Local Conditions,170.0,Met One BAM-1020 Mass Monitor w/VSCC,40140.0,"Riverside-San Bernardino-Ontario, CA",6,California,65,Riverside,33.9995800008751,-117.41601
07/10/2023,AQS,60131004,3,3.7,ug/m3 LC,21,San Pablo,1,100.0,88101,PM2.5 - Local Conditions,170.0,Met One BAM-1020 Mass Monitor w/VSCC,41860.0,"San Francisco-Oakland-Hayward, CA",6,California,13,Contra Costa,37.9604,-122.356811
07/05/2023,AQS,60570005,3,7.8,ug/m3 LC,43,Grass Valley-Litton Building,1,100.0,88101,PM2.5 - Local Conditions,209.0,Met One BAM-1022 Mass Monitor w/ VSCC or TE-PM2.5C,46020.0,"Truckee-Grass Valley, CA",6,California,57,Nevada,39.2334770009245,-121.055608
01/05/2023,AQS,60374010,3,4.8,ug/m3 LC,27,North Hollywood (NOHO),1,100.0,88502,Acceptable PM2.5 AQI & Speciation Mass,731.0,Met-One BAM-1020 W/PM2.5 SCC,31080.0,"Los Angeles-Long Beach-Anaheim, CA",6,California,37,Los Angeles,34.1819770008773,-118.363036
02/17/2023,AQS,60631007,4,14.2,ug/m3 LC,61,Chester-222 First Ave,1,100.0,88502,Acceptable PM2.5 AQI & Speciation Mass,731.0,Met-One BAM-1020 W/PM2.5 SCC,,,6,California,63,Plumas,40.3096440009309,-121.227848
07/04/2023,AQS,60195001,3,12.0,ug/m3 LC,56,Clovis-Villa,1,100.0,88101,PM2.5 - Local Conditions,170.0,Met One BAM-1020 Mass Monitor w/VSCC,23420.0,"Fresno, CA",6,California,19,Fresno,36.819449,-119.716433
12/06/2023,AQS,60250005,3,13.9,ug/m3 LC,60,Calexico-Ethel Street,1,100.0,88101,PM2.5 - Local Conditions,170.0,Met One BAM-1020 Mass Monitor w/VSCC,20940.0,"El Centro, CA",6,California,25,Imperial,32.67618,-115.48307
12/07/2023,AQS,60850006,3,4.7,ug/m3 LC,26,San Jose - Knox Avenue,1,100.0,88101,PM2.5 - Local Conditions,170.0,Met One BAM-1020 Mass Monitor w/VSCC,41940.0,"San Jose-Sunnyvale-Santa Clara, CA",6,California,85,Santa Clara,37.338135,-121.849783
06/08/2023,AQS,60831009,1,-0.5,ug/m3 LC,0,Santa Maria,1,100.0,88101,PM2.5 - Local Conditions,170.0,Met One BAM-1020 Mass Monitor w/VSCC,42200.0,"Santa Maria-Santa Barbara, CA",6,California,83,Santa Barbara,34.8906666667,-120.4328444444
12/07/2023,AQS,60718001,3,2.3,ug/m3 LC,13,Big Bear,1,100.0,88101,PM2.5 - Local Conditions,209.0,Met One BAM-1022 Mass Monitor w/ VSCC or TE-PM2.5C,40140.0,"Riverside-San Bernardino-Ontario, CA",6,California,71,San Bernardino,34.2646400008783,-116.86147
05/25/2023,AQS,60010009,3,4.0,ug/m3 LC,22,Oakland,1,100.0,88101,PM2.5 - Local Conditions,170.0,Met One BAM-1020 Mass Monitor w/VSCC,41860.0,"San Francisco-Oakland-Hayward, CA",6,California,1,Alameda,37.743065,-122.169935
02/21/2023,AQS,60192008,3,4.8,ug/m3 LC,27,Huron,1,100.0,88502,Acceptable PM2.5 AQI & Speciation Mass,731.0,Met-One BAM-1020 W/PM2.5 SCC,23420.0,"Fresno, CA",6,California,19,Fresno,36.198672,-120.101096
06/07/2023,AQS,60771003,3,3.9,ug/m3 LC,22,Stockton - University Park,1,100.0,88101,PM2.5 - Local Conditions,170.0,Met One BAM-1020 Mass Monitor w/VSCC,44700.0,"Stockton-Lodi, CA",6,California,77,San Joaquin,37.961578,-121.281414
08/24/2023,AQS,60670006,3,5.8,ug/m3 LC,32,Sacramento-Del Paso Manor,1,100.0,88101,PM2.5 - Local Conditions,170.0,Met One BAM-1020 Mass Monitor w/VSCC,40900.0,"Sacramento--Roseville--Arden-Arcade, CA",6,California,67,Sacramento,38.6137790009202,-121.368014
01/27/2023,AQS,60111002,3,17.4,ug/m3 LC,66,Colusa-Sunrise Blvd,1,100.0,88101,PM2.5 - Local Conditions,170.0,Met One BAM-1020 Mass Monitor w/VSCC,,,6,California,11,Colusa,39.18919,-121.99887
04/21/2023,AQS,60250007,3,7.5,ug/m3 LC,42,Brawley-220 Main Street,1,100.0,88101,PM2.5 - Local Conditions,209.0,Met One BAM-1022 Mass Monitor w/ VSCC or TE-PM2.5C,20940.0,"El Centro, CA",6,California,25,Imperial,32.97833,-115.53917
02/20/2023,AQS,60452003,3,18.1,ug/m3 LC,68,Willits-Blosser Lane,1,100.0,88101,PM2.5 - Local Conditions,170.0,Met One BAM-1020 Mass Monitor w/VSCC,46380.0,"Ukiah, CA",6,California,45,Mendocino,39.39861,-123.35872
05/06/2023,AQS,60150007,1,3.5,ug/m3 LC,19,Crescent City-Crescent Elk School,1,100.0,88502,Acceptable PM2.5 AQI & Speciation Mass,731.0,Met-One BAM-1020 W/PM2.5 SCC,18860.0,"Crescent City, CA",6,California,15,Del Norte,41.7561300009374,-124.20347
11/09/2023,AQS,60950004,4,8.2,ug/m3 LC,46,Vallejo,1,100.0,88101,PM2.5 - Local Conditions,170.0,Met One BAM-1020 Mass Monitor w/VSCC,46700.0,"Vallejo-Fairfield, CA",6,California,95,Solano,38.102507,-122.237976
12/29/2023,AQS,60950004,4,3.8,ug/m3 LC,21,Vallejo,1,100.0,88101,PM2.5 - Local Conditions,170.0,Met One BAM-1020 Mass Monitor w/VSCC,46700.0,"Vallejo-Fairfield, CA",6,California,95,Solano,38.102507,-122.237976
09/14/2023,AQS,60431001,3,8.2,ug/m3 LC,46,Yosemite NP-Yosemite Village Vistor Center,1,100.0,88502,Acceptable PM2.5 AQI & Speciation Mass,731.0,Met-One BAM-1020 W/PM2.5 SCC,,,6,California,43,Mariposa,37.748707,-119.587094
10/17/2023,AQS,60670006,3,6.5,ug/m3 LC,36,Sacramento-Del Paso Manor,1,100.0,88101,PM2.5 - Local Conditions,170.0,Met One BAM-1020 Mass Monitor w/VSCC,40900.0,"Sacramento--Roseville--Arden-Arcade, CA",6,California,67,Sacramento,38.6137790009202,-121.368014
09/27/2023,AQS,60811001,3,7.1,ug/m3 LC,39,Redwood City,1,100.0,88101,PM2.5 - Local Conditions,170.0,Met One BAM-1020 Mass Monitor w/VSCC,41860.0,"San Francisco-Oakland-Hayward, CA",6,California,81,San Mateo,37.482934,-122.20337
11/02/2023,AQS,60210003,3,13.7,ug/m3 LC,60,Willows-Colusa Street,1,100.0,88502,Acceptable PM2.5 AQI & Speciation Mass,731.0,Met-One BAM-1020 W/PM2.5 SCC,,,6,California,21,Glenn,39.53387,-122.190834
09/03/2023,AQS,61112002,3,5.6,ug/m3 LC,31,Simi Valley-Cochran Street,1,100.0,88101,PM2.5 - Local Conditions,170.0,Met One BAM-1020 Mass Monitor w/VSCC,37100.0,"Oxnard-Thousand Oaks-Ventura, CA",6,California,111,Ventura,34.276316,-118.683685
04/25/2023,AQS,60195001,3,9.3,ug/m3 LC,51,Clovis-Villa,1,100.0,88101,PM2.5 - Local Conditions,170.0,Met One BAM-1020 Mass Monitor w/VSCC,23420.0,"Fresno, CA",6,California,19,Fresno,36.819449,-119.716433
10/15/2023,AQS,60290014,1,13.8,ug/m3 LC,60,Bakersfield-California,1,100.0,88101,PM2.5 - Local Conditions,145.0,R & P Model 2025 PM-2.5 Sequential Air Sampler w/VSCC,12540.0,"Bakersfield, CA",6,California,29,Kern,35.356615,-119.062613
11/21/2023,AQS,60932001,3,13.5,ug/m3 LC,59,Yreka,1,100.0,88101,PM2.5 - Local Conditions,170.0,Met One BAM-1020 Mass Monitor w/VSCC,,,6,California,93,Siskiyou,41.726892,-122.633579
11/28/2023,AQS,60371103,1,7.2,ug/m3 LC,40,Los Angeles-North Main Street,1,100.0,88101,PM2.5 - Local Conditions,145.0,R & P Model 2025 PM-2.5 Sequential Air Sampler w/VSCC,31080.0,"Los Angeles-Long Beach-Anaheim, CA",6,California,37,Los Angeles,34.0665900008759,-118.22688
12/16/2023,AQS,60798002,3,9.8,ug/m3 LC,52,Atascadero,1,100.0,88101,PM2.5 - Local Conditions,170.0,Met One BAM-1020 Mass Monitor w/VSCC,42020.0,"San Luis Obispo-Paso Robles-Arroyo Grande, CA",6,California,79,San Luis Obispo,35.49453,-120.66617
07/28/2023,AQS,60150007,1,6.0,ug/m3 LC,33,Crescent City-Crescent Elk School,1,100.0,88502,Acceptable PM2.5 AQI & Speciation Mass,731.0,Met-One BAM-1020 W/PM2.5 SCC,18860.0,"Crescent City, CA",6,California,15,Del Norte,41.7561300009374,-124.20347
08/19/2023,AQS,60210003,3,8.8,ug/m3 LC,49,Willows-Colusa Street,1,100.0,88502,Acceptable PM2.5 AQI & Speciation Mass,731.0,Met-One BAM-1020 W/PM2.5 SCC,,,6,California,21,Glenn,39.53387,-122.190834
12/05/2023,AQS,60299001,1,0.6,ug/m3 LC,3,Lebec-Peace Valley/Frazier Park Roads,1,100.0,88502,Acceptable PM2.5 AQI & Speciation Mass,707.0,"IMPROVE Module A with Cyclone Inlet-Teflon Filter, 2.2 sq. cm.",12540.0,"Bakersfield, CA",6,California,29,Kern,34.821921799,-118.88759767
03/29/2023,AQS,60530008,3,2.0,ug/m3 LC,11,King City 2,1,100.0,88101,PM2.5 - Local Conditions,170.0,Met One BAM-1020 Mass Monitor w/VSCC,41500.0,"Salinas, CA",6,California,53,Monterey,36.2092860008996,-121.126371
05/25/2023,AQS,60150007,1,9.5,ug/m3 LC,52,Crescent City-Crescent Elk School,1,100.0,88502,Acceptable PM2.5 AQI & Speciation Mass,731.0,Met-One BAM-1020 W/PM2.5 SCC,18860.0,"Crescent City, CA",6,California,15,Del Norte,41.7561300009374,-124.20347
12/31/2023,AQS,60190500,1,2.8,ug/m3 LC,16,Table Mountain Air Monitoring Site,1,100.0,88101,PM2.5 - Local Conditions,170.0,Met One BAM-1020 Mass Monitor w/VSCC,23420.0,"Fresno, CA",6,California,19,Fresno,36.9851185574381,-119.658339349936
04/30/2023,AQS,60290020,3,8.6,ug/m3 LC,48,Mojave-Pat Avenue,1,100.0,88101,PM2.5 - Local Conditions,170.0,Met One BAM-1020 Mass Monitor w/VSCC,12540.0,"Bakersfield, CA",6,California,29,Kern,35.04944,-118.18893
06/12/2023,AQS,60773005,3,2.1,ug/m3 LC,12,Tracy-Airport,1,100.0,88502,Acceptable PM2.5 AQI & Speciation Mass,731.0,Met-One BAM-1020 W/PM2.5 SCC,44700.0,"Stockton-Lodi, CA",6,California,77,San Joaquin,37.682635,-121.442495
10/10/2023,AQS,60090001,3,3.0,ug/m3 LC,17,San Andreas-Gold Strike Road,1,100.0,88101,PM2.5 - Local Conditions,170.0,Met One BAM-1020 Mass Monitor w/VSCC,,,6,California,9,Calaveras,38.20185,-120.680277
08/24/2023,AQS,60772010,3,9.4,ug/m3 LC,52,Manteca,1,100.0,88101,PM2.5 - Local Conditions,170.0,Met One BAM-1020 Mass Monitor w/VSCC,44700.0,"Stockton-Lodi, CA",6,California,77,San Joaquin,37.793392,-121.247874
04/01/2023,AQS,60650016,3,9.1,ug/m3 LC,51,Temecula,1,100.0,88502,Acceptable PM2.5 AQI & Speciation Mass,731.0,Met-One BAM-1020 W/PM2.5 SCC,40140.0,"Riverside-San Bernardino-Ontario, CA",6,California,65,Riverside,33.5830180008699,-117.072202
03/09/2023,AQS,61130004,3,3.7,ug/m3 LC,21,Davis-UCD Campus,1,100.0,88502,Acceptable PM2.5 AQI & Speciation Mass,731.0,Met-One BAM-1020 W/PM2.5 SCC,40900.0,"Sacramento--Roseville--Arden-Arcade, CA",6,California,113,Yolo,38.53445,-121.7734
08/27/2023,AQS,60371103,3,13.9,ug/m3 LC,60,Los Angeles-North Main Street,1,100.0,88101,PM2.5 - Local Conditions,170.0,Met One BAM-1020 Mass Monitor w/VSCC,31080.0,"Los Angeles-Long Beach-Anaheim, CA",6,California,37,Los Angeles,34.0665900008759,-118.22688
02/02/2023,AQS,60010011,3,18.6,ug/m3 LC,69,Oakland West,1,100.0,88101,PM2.5 - Local Conditions,170.0,Met One BAM-1020 Mass Monitor w/VSCC,41860.0,"San Francisco-Oakland-Hayward, CA",6,California,1,Alameda,37.814781,-122.282347
08/12/2023,AQS,60811001,3,6.1,ug/m3 LC,34,Redwood City,1,100.0,88101,PM2.5 - Local Conditions,170.0,Met One BAM-1020 Mass Monitor w/VSCC,41860.0,"San Francisco-Oakland-Hayward, CA",6,California,81,San Mateo,37.482934,-122.20337
11/09/2023,AQS,60271023,21,17.2,ug/m3 LC,66,Bishop Tribe EMO,1,100.0,88101,PM2.5 - Local Conditions,736.0,Teledyne T640 at 5.0 LPM (Corrected),13860.0,"Bishop, CA",6,California,27,Inyo,37.3621369693511,-118.417477920338
07/29/2023,AQS,60650500,1,11.0,ug/m3 LC,55,29 Palms,1,100.0,88101,PM2.5 - Local Conditions,238.0,Teledyne T640X at 16.67 LPM,40140.0,"Riverside-San Bernardino-Ontario, CA",6,California,65,Riverside,33.7196900008716,-116.1897
03/25/2023,AQS,60731016,2,6.2,ug/m3 LC,34,San Diego - Kearny Villa Rd.,1,100.0,88101,PM2.5 - Local Conditions,545.0,Met One E-SEQ-FRM PM2.5 with VSCC,41740.0,"San Diego-Carlsbad, CA",6,California,73,San Diego,32.8457090008602,-117.123964
04/29/2023,AQS,60731006,3,10.5,ug/m3 LC,54,Alpine,1,100.0,88101,PM2.5 - Local Conditions,238.0,Teledyne T640X at 16.67 LPM,41740.0,"San Diego-Carlsbad, CA",6,California,73,San Diego,32.8423180008601,-116.768293
10/21/2023,AQS,60531003,2,4.5,ug/m3 LC,25,Salinas 3,1,100.0,88101,PM2.5 - Local Conditions,143.0,R & P Model 2000 PM-2.5 Air Sampler w/VSCC,41500.0,"Salinas, CA",6,California,53,Monterey,36.6942610009043,-121.623271
12/08/2023,AQS,60251003,3,8.0,ug/m3 LC,44,El Centro-9th Street,1,100.0,88101,PM2.5 - Local Conditions,209.0,Met One BAM-1022 Mass Monitor w/ VSCC or TE-PM2.5C,20940.0,"El Centro, CA",6,California,25,Imperial,32.79222,-115.56306
04/07/2023,AQS,60832004,1,4.2,ug/m3 LC,23,Lompoc H Street,1,100.0,88101,PM2.5 - Local Conditions,170.0,Met One BAM-1020 Mass Monitor w/VSCC,42200.0,"Santa Maria-Santa Barbara, CA",6,California,83,Santa Barbara,34.6378200008827,-120.4575
01/15/2023,AQS,60990006,3,0.9,ug/m3 LC,5,Turlock,1,100.0,88101,PM2.5 - Local Conditions,170.0,Met One BAM-1020 Mass Monitor w/VSCC,33700.0,"Modesto, CA",6,California,99,Stanislaus,37.488317,-120.836008
07/14/2023,AQS,61050002,1,0.7,ug/m3 LC,4,Weaverville-Courthouse,1,100.0,88502,Acceptable PM2.5 AQI & Speciation Mass,731.0,Met-One BAM-1020 W/PM2.5 SCC,,,6,California,105,Trinity,40.73475,-122.9412
01/28/2023,AQS,60731026,3,11.8,ug/m3 LC,56,San Diego - Sherman Elementary School,1,100.0,88101,PM2.5 - Local Conditions,238.0,Teledyne T640X at 16.67 LPM,41740.0,"San Diego-Carlsbad, CA",6,California,73,San Diego,32.7101770008584,-117.142665
04/06/2023,AQS,60670006,2,5.5,ug/m3 LC,31,Sacramento-Del Paso Manor,1,100.0,88101,PM2.5 - Local Conditions,145.0,R & P Model 2025 PM-2.5 Sequential Air Sampler w/VSCC,40900.0,"Sacramento--Roseville--Arden-Arcade, CA",6,California,67,Sacramento,38.6137790009202,-121.368014
05/17/2023,AQS,60659001,3,14.2,ug/m3 LC,61,Lake Elsinore,1,100.0,88502,Acceptable PM2.5 AQI & Speciation Mass,731.0,Met-One BAM-1020 W/PM2.5 SCC,40140.0,"Riverside-San Bernardino-Ontario, CA",6,California,65,Riverside,33.67649,-117.33098
10/17/2023,AQS,60195001,3,10.1,ug/m3 LC,53,Clovis-Villa,1,100.0,88101,PM2.5 - Local Conditions,170.0,Met One BAM-1020 Mass Monitor w/VSCC,23420.0,"Fresno, CA",6,California,19,Fresno,36.819449,-119.716433
10/03/2023,AQS,60072003,3,3.6,ug/m3 LC,20,Paradise-Clark,1,100.0,88502,Acceptable PM2.5 AQI & Speciation Mass,731.0,Met-One BAM-1020 W/PM2.5 SCC,17020.0,"Chico, CA",6,California,7,Butte,39.75786,-121.60791
04/24/2023,AQS,60371201,3,15.7,ug/m3 LC,63,Reseda,1,100.0,88502,Acceptable PM2.5 AQI & Speciation Mass,731.0,Met-One BAM-1020 W/PM2.5 SCC,31080.0,"Los Angeles-Long Beach-Anaheim, CA",6,California,37,Los Angeles,34.19925,-118.53276
07/02/2023,AQS,60610006,3,8.1,ug/m3 LC,45,Roseville-N Sunrise Ave,1,100.0,88101,PM2.5 - Local Conditions,170.0,Met One BAM-1020 Mass Monitor w/VSCC,40900.0,"Sacramento--Roseville--Arden-Arcade, CA",6,California,61,Placer,38.74643,-121.26498
03/24/2023,AQS,60650016,3,8.0,ug/m3 LC,44,Temecula,1,100.0,88502,Acceptable PM2.5 AQI & Speciation Mass,731.0,Met-One BAM-1020 W/PM2.5 SCC,40140.0,"Riverside-San Bernardino-Ontario, CA",6,California,65,Riverside,33.5830180008699,-117.072202
01/22/2023,AQS,60710005,3,3.6,ug/m3 LC,20,Crestline,1,100.0,88502,Acceptable PM2.5 AQI & Speciation Mass,171.0,Met-one BAM-1022 W/PM2.5 SCC,40140.0,"Riverside-San Bernardino-Ontario, CA",6,California,71,San Bernardino,34.2431,-117.27235
03/14/2023,AQS,60290014,3,3.5,ug/m3 LC,19,Bakersfield-California,1,100.0,88502,Acceptable PM2.5 AQI & Speciation Mass,731.0,Met-One BAM-1020 W/PM2.5 SCC,12540.0,"Bakersfield, CA",6,California,29,Kern,35.356615,-119.062613
10/18/2023,AQS,60670010,3,8.6,ug/m3 LC,48,Sacramento-1309 T Street,1,100.0,88101,PM2.5 - Local Conditions,170.0,Met One BAM-1020 Mass Monitor w/VSCC,40900.0,"Sacramento--Roseville--Arden-Arcade, CA",6,California,67,Sacramento,38.56844,-121.49311
07/09/2023,AQS,60376012,3,14.9,ug/m3 LC,62,Santa Clarita,1,100.0,88502,Acceptable PM2.5 AQI & Speciation Mass,731.0,Met-One BAM-1020 W/PM2.5 SCC,31080.0,"Los Angeles-Long Beach-Anaheim, CA",6,California,37,Los Angeles,34.38344,-118.5284
06/17/2023,AQS,60731022,23,7.4,ug/m3 LC,41,El Cajon - Lexington Elementary School,1,100.0,88101,PM2.5 - Local Conditions,738.0,Teledyne T640X at 16.67 LPM (Corrected),41740.0,"San Diego-Carlsbad, CA",6,California,73,San Diego,32.7895650008594,-116.944308
06/28/2023,AQS,60670012,3,4.7,ug/m3 LC,26,Folsom-Natoma St.,1,100.0,88101,PM2.5 - Local Conditions,170.0,Met One BAM-1020 Mass Monitor w/VSCC,40900.0,"Sacramento--Roseville--Arden-Arcade, CA",6,California,67,Sacramento,38.683304,-121.164457
01/21/2023,AQS,60379035,1,0.7,ug/m3 LC,4,Lancaster - Fairgrounds,1,100.0,88101,PM2.5 - Local Conditions,170.0,Met One BAM-1020 Mass Monitor w/VSCC,31080.0,"Los Angeles-Long Beach-Anaheim, CA",6,California,37,Los Angeles,34.725389,-118.178601
10/24/2023,AQS,60718001,3,5.4,ug/m3 LC,30,Big Bear,1,100.0,88101,PM2.5 - Local Conditions,209.0,Met One BAM-1022 Mass Monitor w/ VSCC or TE-PM2.5C,40140.0,"Riverside-San Bernardino-Ontario, CA",6,California,71,San Bernardino,34.2646400008783,-116.86147
11/25/2023,AQS,60651016,1,2.1,ug/m3 LC,12,Morongo Air Monitoring Station,1,100.0,88101,PM2.5 - Local Conditions,209.0,Met One BAM-1022 Mass Monitor w/ VSCC or TE-PM2.5C,40140.0,"Riverside-San Bernardino-Ontario, CA",6,California,65,Riverside,33.9447129,-116.830074
04/03/2023,AQS,60310004,8,3.0,ug/m3 LC,17,Corcoran-Patterson,1,100.0,88101,PM2.5 - Local Conditions,170.0,Met One BAM-1020 Mass Monitor w/VSCC,25260.0,"Hanford-Corcoran, CA",6,California,31,Kings,36.102244,-119.56565
05/05/2023,AQS,60731006,3,3.6,ug/m3 LC,20,Alpine,1,100.0,88101,PM2.5 - Local Conditions,238.0,Teledyne T640X at 16.67 LPM,41740.0,"San Diego-Carlsbad, CA",6,California,73,San Diego,32.8423180008601,-116.768293
09/30/2023,AQS,60510005,4,1.5,ug/m3 LC,8,Lee Vining,1,100.0,88101,PM2.5 - Local Conditions,638.0,Teledyne T640X at 16.67 LPM w/Network Data Alignment enabled,,,6,California,51,Mono,37.962069,-119.120278
10/27/2023,AQS,60670010,3,8.9,ug/m3 LC,49,Sacramento-1309 T Street,1,100.0,88101,PM2.5 - Local Conditions,170.0,Met One BAM-1020 Mass Monitor w/VSCC,40900.0,"Sacramento--Roseville--Arden-Arcade, CA",6,California,67,Sacramento,38.56844,-121.49311
07/23/2023,AQS,60271023,21,5.2,ug/m3 LC,29,Bishop Tribe EMO,1,100.0,88101,PM2.5 - Local Conditions,736.0,Teledyne T640 at 5.0 LPM (Corrected),13860.0,"Bishop, CA",6,California,27,Inyo,37.3621369693511,-118.417477920338
02/24/2023,AQS,61030007,3,4.9,ug/m3 LC,27,Red Bluff-Walnut St. District Office,1,100.0,88101,PM2.5 - Local Conditions,170.0,Met One BAM-1020 Mass Monitor w/VSCC,39780.0,"Red Bluff, CA",6,California,103,Tehama,40.17093,-122.25556
09/30/2023,AQS,60773005,3,1.3,ug/m3 LC,7,Tracy-Airport,1,100.0,88502,Acceptable PM2.5 AQI & Speciation Mass,731.0,Met-One BAM-1020 W/PM2.5 SCC,44700.0,"Stockton-Lodi, CA",6,California,77,San Joaquin,37.682635,-121.442495
01/08/2023,AQS,60590007,1,13.5,ug/m3 LC,59,Anaheim,1,100.0,88101,PM2.5 - Local Conditions,145.0,R & P Model 2025 PM-2.5 Sequential Air Sampler w/VSCC,31080.0,"Los Angeles-Long Beach-Anaheim, CA",6,California,59,Orange,33.83062,-117.93845
03/31/2023,AQS,60792020,1,2.5,ug/m3 LC,14,SLO Roberto,1,100.0,88101,PM2.5 - Local Conditions,170.0,Met One BAM-1020 Mass Monitor w/VSCC,42020.0,"San Luis Obispo-Paso Robles-Arroyo Grande, CA",6,California,79,San Luis Obispo,35.2595015184308,-120.644719880058
06/23/2023,AQS,60792007,1,5.0,ug/m3 LC,28,CDF,1,100.0,88101,PM2.5 - Local Conditions,170.0,Met One BAM-1020 Mass Monitor w/VSCC,42020.0,"San Luis Obispo-Paso Robles-Arroyo Grande, CA",6,California,79,San Luis Obispo,35.0467300008874,-120.58777
06/16/2023,AQS,60590007,3,8.9,ug/m3 LC,49,Anaheim,1,100.0,88101,PM2.5 - Local Conditions,170.0,Met One BAM-1020 Mass Monitor w/VSCC,31080.0,"Los Angeles-Long Beach-Anaheim, CA",6,California,59,Orange,33.83062,-117.93845
06/01/2023,AQS,60130002,3,9.9,ug/m3 LC,52,Concord,1,100.0,88101,PM2.5 - Local Conditions,170.0,Met One BAM-1020 Mass Monitor w/VSCC,41860.0,"San Francisco-Oakland-Hayward, CA",6,California,13,Contra Costa,37.936013,-122.026154
12/30/2023,AQS,60290010,3,7.9,ug/m3 LC,44,Bakersfield-Golden / M St,1,100.0,88101,PM2.5 - Local Conditions,170.0,Met One BAM-1020 Mass Monitor w/VSCC,12540.0,"Bakersfield, CA",6,California,29,Kern,35.385574,-119.015009
07/16/2023,AQS,60690002,3,5.0,ug/m3 LC,28,Hollister,1,100.0,88101,PM2.5 - Local Conditions,170.0,Met One BAM-1020 Mass Monitor w/VSCC,41940.0,"San Jose-Sunnyvale-Santa Clara, CA",6,California,69,San Benito,36.8434250009057,-121.3621
05/23/2023,AQS,60376012,3,10.9,ug/m3 LC,54,Santa Clarita,1,100.0,88502,Acceptable PM2.5 AQI & Speciation Mass,731.0,Met-One BAM-1020 W/PM2.5 SCC,31080.0,"Los Angeles-Long Beach-Anaheim, CA",6,California,37,Los Angeles,34.38344,-118.5284
12/17/2023,AQS,60190011,2,38.1,ug/m3 LC,107,Fresno - Garland,1,100.0,88101,PM2.5 - Local Conditions,145.0,R & P Model 2025 PM-2.5 Sequential Air Sampler w/VSCC,23420.0,"Fresno, CA",6,California,19,Fresno,36.78538,-119.77321
12/25/2023,AQS,60210003,3,10.7,ug/m3 LC,54,Willows-Colusa Street,1,100.0,88502,Acceptable PM2.5 AQI & Speciation Mass,731.0,Met-One BAM-1020 W/PM2.5 SCC,,,6,California,21,Glenn,39.53387,-122.190834
08/13/2023,AQS,60010007,3,3.3,ug/m3 LC,18,Livermore,1,100.0,88101,PM2.5 - Local Conditions,170.0,Met One BAM-1020 Mass Monitor w/VSCC,41860.0,"San Francisco-Oakland-Hayward, CA",6,California,1,Alameda,37.687526,-121.784217
07/21/2023,AQS,60371302,1,15.2,ug/m3 LC,62,Compton,1,100.0,88101,PM2.5 - Local Conditions,145.0,R & P Model 2025 PM-2.5 Sequential Air Sampler w/VSCC,31080.0,"Los Angeles-Long Beach-Anaheim, CA",6,California,37,Los Angeles,33.9013890008739,-118.205
01/22/2023,AQS,60271018,1,4.5,ug/m3 LC,25,Lone Pine Paiute-Shoshone Reservation,1,100.0,88101,PM2.5 - Local Conditions,236.0,Teledyne T640 at 5.0 LPM,13860.0,"Bishop, CA",6,California,27,Inyo,36.5955560009034,-118.049167
03/13/2023,AQS,60731017,1,4.0,ug/m3 LC,22,San Diego -Rancho Carmel Drive,1,100.0,88101,PM2.5 - Local Conditions,545.0,Met One E-SEQ-FRM PM2.5 with VSCC,41740.0,"San Diego-Carlsbad, CA",6,California,73,San Diego,32.985428,-117.082198
02/11/2023,AQS,61131003,3,4.5,ug/m3 LC,25,Woodland-Gibson Road,1,100.0,88101,PM2.5 - Local Conditions,170.0,Met One BAM-1020 Mass Monitor w/VSCC,40900.0,"Sacramento--Roseville--Arden-Arcade, CA",6,California,113,Yolo,38.66121,-121.73269
07/22/2023,AQS,60731008,3,9.7,ug/m3 LC,52,Camp Pendleton,1,100.0,88101,PM2.5 - Local Conditions,638.0,Teledyne T640X at 16.67 LPM w/Network Data Alignment enabled,41740.0,"San Diego-Carlsbad, CA",6,California,73,San Diego,33.217046,-117.396249
11/09/2023,AQS,60010015,3,6.8,ug/m3 LC,38,Pleasanton - Owens Ct,1,100.0,88101,PM2.5 - Local Conditions,170.0,Met One BAM-1020 Mass Monitor w/VSCC,41860.0,"San Francisco-Oakland-Hayward, CA",6,California,1,Alameda,37.7012220009132,-121.903019
07/04/2023,AQS,60670006,1,14.3,ug/m3 LC,61,Sacramento-Del Paso Manor,1,100.0,88101,PM2.5 - Local Conditions,145.0,R & P Model 2025 PM-2.5 Sequential Air Sampler w/VSCC,40900.0,"Sacramento--Roseville--Arden-Arcade, CA",6,California,67,Sacramento,38.6137790009202,-121.368014
01/07/2023,AQS,60530002,3,2.0,ug/m3 LC,11,Carmel Valley,1,100.0,88101,PM2.5 - Local Conditions,170.0,Met One BAM-1020 Mass Monitor w/VSCC,41500.0,"Salinas, CA",6,California,53,Monterey,36.4818700009023,-121.73333
02/17/2023,AQS,60371103,12,7.7,ug/m3 LC,43,Los Angeles-North Main Street,1,100.0,88502,Acceptable PM2.5 AQI & Speciation Mass,810.0,Met One SASS/SuperSASS Teflon,31080.0,"Los Angeles-Long Beach-Anaheim, CA",6,California,37,Los Angeles,34.0665900008759,-118.22688
03/08/2023,AQS,60670010,3,3.0,ug/m3 LC,17,Sacramento-1309 T Street,1,100.0,88101,PM2.5 - Local Conditions,170.0,Met One BAM-1020 Mass Monitor w/VSCC,40900.0,"Sacramento--Roseville--Arden-Arcade, CA",6,California,67,Sacramento,38.56844,-121.49311
12/14/2023,AQS,60195025,3,39.4,ug/m3 LC,111,Fresno-Pacific,1,100.0,88101,PM2.5 - Local Conditions,170.0,Met One BAM-1020 Mass Monitor w/VSCC,23420.0,"Fresno, CA",6,California,19,Fresno,36.72639,-119.733
07/11/2023,AQS,60192009,3,2.4,ug/m3 LC,13,Tranquillity,1,100.0,88101,PM2.5 - Local Conditions,170.0,Met One BAM-1020 Mass Monitor w/VSCC,23420.0,"Fresno, CA",6,California,19,Fresno,36.6342250009037,-120.382331
07/02/2023,AQS,60074001,3,8.6,ug/m3 LC,48,"TRAFFIC, RURAL PAVED ROAD",1,100.0,88502,Acceptable PM2.5 AQI & Speciation Mass,731.0,Met-One BAM-1020 W/PM2.5 SCC,17020.0,"Chico, CA",6,California,7,Butte,39.327563,-121.668811
03/28/2023,AQS,60658001,3,5.8,ug/m3 LC,32,Rubidoux,1,100.0,88101,PM2.5 - Local Conditions,170.0,Met One BAM-1020 Mass Monitor w/VSCC,40140.0,"Riverside-San Bernardino-Ontario, CA",6,California,65,Riverside,33.9995800008751,-117.41601
02/25/2023,AQS,60870007,3,0.9,ug/m3 LC,5,Santa Cruz,1,100.0,88101,PM2.5 - Local Conditions,170.0,Met One BAM-1020 Mass Monitor w/VSCC,42100.0,"Santa Cruz-Watsonville, CA",6,California,87,Santa Cruz,36.983320000907,-121.98822
09/27/2023,AQS,60670012,3,4.9,ug/m3 LC,27,Folsom-Natoma St.,1,100.0,88101,PM2.5 - Local Conditions,170.0,Met One BAM-1020 Mass Monitor w/VSCC,40900.0,"Sacramento--Roseville--Arden-Arcade, CA",6,California,67,Sacramento,38.683304,-121.164457
07/30/2023,AQS,60730077,23,10.4,ug/m3 LC,53,Campo Indian Reservation,1,100.0,88101,PM2.5 - Local Conditions,736.0,Teledyne T640 at 5.0 LPM (Corrected),41740.0,"San Diego-Carlsbad, CA",6,California,73,San Diego,32.6509000008575,-116.365
05/11/2023,AQS,60658001,3,9.9,ug/m3 LC,52,Rubidoux,1,100.0,88101,PM2.5 - Local Conditions,170.0,Met One BAM-1020 Mass Monitor w/VSCC,40140.0,"Riverside-San Bernardino-Ontario, CA",6,California,65,Riverside,33.9995800008751,-117.41601
10/13/2023,AQS,60010007,3,3.8,ug/m3 LC,21,Livermore,1,100.0,88101,PM2.5 - Local Conditions,170.0,Met One BAM-1020 Mass Monitor w/VSCC,41860.0,"San Francisco-Oakland-Hayward, CA",6,California,1,Alameda,37.687526,-121.784217
07/20/2023,AQS,60530002,3,3.8,ug/m3 LC,21,Carmel Valley,1,100.0,88101,PM2.5 - Local Conditions,170.0,Met One BAM-1020 Mass Monitor w/VSCC,41500.0,"Salinas, CA",6,California,53,Monterey,36.4818700009023,-121.73333
01/05/2023,AQS,60010011,3,7.5,ug/m3 LC,42,Oakland West,1,100.0,88101,PM2.5 - Local Conditions,170.0,Met One BAM-1020 Mass Monitor w/VSCC,41860.0,"San Francisco-Oakland-Hayward, CA",6,California,1,Alameda,37.814781,-122.282347
12/19/2023,AQS,60731008,3,9.8,ug/m3 LC,52,Camp Pendleton,1,100.0,88101,PM2.5 - Local Conditions,638.0,Teledyne T640X at 16.67 LPM w/Network Data Alignment enabled,41740.0,"San Diego-Carlsbad, CA",6,California,73,San Diego,33.217046,-117.396249
10/20/2023,AQS,60670006,3,12.1,ug/m3 LC,57,Sacramento-Del Paso Manor,1,100.0,88101,PM2.5 - Local Conditions,170.0,Met One BAM-1020 Mass Monitor w/VSCC,40900.0,"Sacramento--Roseville--Arden-Arcade, CA",6,California,67,Sacramento,38.6137790009202,-121.368014
11/06/2023,AQS,60251003,3,16.0,ug/m3 LC,64,El Centro-9th Street,1,100.0,88101,PM2.5 - Local Conditions,209.0,Met One BAM-1022 Mass Monitor w/ VSCC or TE-PM2.5C,20940.0,"El Centro, CA",6,California,25,Imperial,32.79222,-115.56306
06/06/2023,AQS,60311004,3,6.7,ug/m3 LC,37,Hanford-Irwin,1,100.0,88101,PM2.5 - Local Conditions,170.0,Met One BAM-1020 Mass Monitor w/VSCC,25260.0,"Hanford-Corcoran, CA",6,California,31,Kings,36.31567,-119.643447
09/04/2023,AQS,60472510,3,8.6,ug/m3 LC,48,Merced-M St,1,100.0,88101,PM2.5 - Local Conditions,170.0,Met One BAM-1020 Mass Monitor w/VSCC,32900.0,"Merced, CA",6,California,47,Merced,37.30832,-120.480456
02/09/2023,AQS,60670010,3,18.4,ug/m3 LC,68,Sacramento-1309 T Street,1,100.0,88101,PM2.5 - Local Conditions,170.0,Met One BAM-1020 Mass Monitor w/VSCC,40900.0,"Sacramento--Roseville--Arden-Arcade, CA",6,California,67,Sacramento,38.56844,-121.49311
03/28/2023,AQS,60930005,1,0.4,ug/m3 LC,2,Lava Beds National Monument,1,100.0,88502,Acceptable PM2.5 AQI & Speciation Mass,707.0,"IMPROVE Module A with Cyclone Inlet-Teflon Filter, 2.2 sq. cm.",,,6,California,93,Siskiyou,41.711824509,-121.50999312
09/06/2023,AQS,60374010,3,9.7,ug/m3 LC,52,North Hollywood (NOHO),1,100.0,88502,Acceptable PM2.5 AQI & Speciation Mass,731.0,Met-One BAM-1020 W/PM2.5 SCC,31080.0,"Los Angeles-Long Beach-Anaheim, CA",6,California,37,Los Angeles,34.1819770008773,-118.363036
03/25/2023,AQS,60371103,12,6.7,ug/m3 LC,37,Los Angeles-North Main Street,1,100.0,88502,Acceptable PM2.5 AQI & Speciation Mass,810.0,Met One SASS/SuperSASS Teflon,31080.0,"Los Angeles-Long Beach-Anaheim, CA",6,California,37,Los Angeles,34.0665900008759,-118.22688
10/24/2023,AQS,60510005,4,3.8,ug/m3 LC,21,Lee Vining,1,100.0,88101,PM2.5 - Local Conditions,638.0,Teledyne T640X at 16.67 LPM w/Network Data Alignment enabled,,,6,California,51,Mono,37.962069,-119.120278
02/05/2023,AQS,60650012,3,12.5,ug/m3 LC,57,Banning Airport,1,100.0,88502,Acceptable PM2.5 AQI & Speciation Mass,731.0,Met-One BAM-1020 W/PM2.5 SCC,40140.0,"Riverside-San Bernardino-Ontario, CA",6,California,65,Riverside,33.92086,-116.85841
04/17/2023,AQS,60731008,3,7.9,ug/m3 LC,44,Camp Pendleton,1,100.0,88101,PM2.5 - Local Conditions,238.0,Teledyne T640X at 16.67 LPM,41740.0,"San Diego-Carlsbad, CA",6,California,73,San Diego,33.217046,-117.396249
09/10/2023,AQS,60392010,3,4.7,ug/m3 LC,26,Madera-City,1,100.0,88101,PM2.5 - Local Conditions,170.0,Met One BAM-1020 Mass Monitor w/VSCC,31460.0,"Madera, CA",6,California,39,Madera,36.953256,-120.034203
11/18/2023,AQS,61113001,3,5.7,ug/m3 LC,32,El Rio-Rio Mesa School #2,1,100.0,88101,PM2.5 - Local Conditions,170.0,Met One BAM-1020 Mass Monitor w/VSCC,37100.0,"Oxnard-Thousand Oaks-Ventura, CA",6,California,111,Ventura,34.25239,-119.143182
05/13/2023,AQS,61130004,3,5.9,ug/m3 LC,33,Davis-UCD Campus,1,100.0,88502,Acceptable PM2.5 AQI & Speciation Mass,731.0,Met-One BAM-1020 W/PM2.5 SCC,40900.0,"Sacramento--Roseville--Arden-Arcade, CA",6,California,113,Yolo,38.53445,-121.7734
05/22/2023,AQS,61010003,3,8.3,ug/m3 LC,46,Yuba City,1,100.0,88101,PM2.5 - Local Conditions,170.0,Met One BAM-1020 Mass Monitor w/VSCC,49700.0,"Yuba City, CA",6,California,101,Sutter,39.1387725442464,-121.618548986224
12/30/2023,AQS,60731022,3,11.6,ug/m3 LC,56,El Cajon - Lexington Elementary School,1,100.0,88101,PM2.5 - Local Conditions,638.0,Teledyne T640X at 16.67 LPM w/Network Data Alignment enabled,41740.0,"San Diego-Carlsbad, CA",6,California,73,San Diego,32.7895650008594,-116.944308
10/30/2023,AQS,60472510,3,11.5,ug/m3 LC,55,Merced-M St,1,100.0,88101,PM2.5 - Local Conditions,170.0,Met One BAM-1020 Mass Monitor w/VSCC,32900.0,"Merced, CA",6,California,47,Merced,37.30832,-120.480456
02/23/2023,AQS,60658001,3,3.0,ug/m3 LC,17,Rubidoux,1,100.0,88101,PM2.5 - Local Conditions,170.0,Met One BAM-1020 Mass Monitor w/VSCC,40140.0,"Riverside-San Bernardino-Ontario, CA",6,California,65,Riverside,33.9995800008751,-117.41601
05/11/2023,AQS,60250005,3,10.7,ug/m3 LC,54,Calexico-Ethel Street,1,100.0,88101,PM2.5 - Local Conditions,170.0,Met One BAM-1020 Mass Monitor w/VSCC,20940.0,"El Centro, CA",6,California,25,Imperial,32.67618,-115.48307
05/16/2023,AQS,60650016,3,13.1,ug/m3 LC,58,Temecula,1,100.0,88502,Acceptable PM2.5 AQI & Speciation Mass,731.0,Met-One BAM-1020 W/PM2.5 SCC,40140.0,"Riverside-San Bernardino-Ontario, CA",6,California,65,Riverside,33.5830180008699,-117.072202
12/18/2023,AQS,60670012,4,6.6,ug/m3 LC,37,Folsom-Natoma St.,1,100.0,88101,PM2.5 - Local Conditions,170.0,Met One BAM-1020 Mass Monitor w/VSCC,40900.0,"Sacramento--Roseville--Arden-Arcade, CA",6,California,67,Sacramento,38.683304,-121.164457
08/16/2023,AQS,60712002,1,9.6,ug/m3 LC,52,Fontana,1,100.0,88101,PM2.5 - Local Conditions,145.0,R & P Model 2025 PM-2.5 Sequential Air Sampler w/VSCC,40140.0,"Riverside-San Bernardino-Ontario, CA",6,California,71,San Bernardino,34.10002,-117.49201
10/25/2023,AQS,60658001,1,6.9,ug/m3 LC,38,Rubidoux,1,100.0,88101,PM2.5 - Local Conditions,145.0,R & P Model 2025 PM-2.5 Sequential Air Sampler w/VSCC,40140.0,"Riverside-San Bernardino-Ontario, CA",6,California,65,Riverside,33.9995800008751,-117.41601
08/26/2023,AQS,60670010,3,10.1,ug/m3 LC,53,Sacramento-1309 T Street,1,100.0,88101,PM2.5 - Local Conditions,170.0,Met One BAM-1020 Mass Monitor w/VSCC,40900.0,"Sacramento--Roseville--Arden-Arcade, CA",6,California,67,Sacramento,38.56844,-121.49311
08/18/2023,AQS,60710027,3,12.8,ug/m3 LC,58,Ontario-Route 60 Near Road,1,100.0,88101,PM2.5 - Local Conditions,170.0,Met One BAM-1020 Mass Monitor w/VSCC,40140.0,"Riverside-San Bernardino-Ontario, CA",6,California,71,San Bernardino,34.030833,-117.61722
05/08/2023,AQS,60870007,3,3.2,ug/m3 LC,18,Santa Cruz,1,100.0,88101,PM2.5 - Local Conditions,170.0,Met One BAM-1020 Mass Monitor w/VSCC,42100.0,"Santa Cruz-Watsonville, CA",6,California,87,Santa Cruz,36.983320000907,-121.98822
09/04/2023,AQS,60072003,3,5.8,ug/m3 LC,32,Paradise-Clark,1,100.0,88502,Acceptable PM2.5 AQI & Speciation Mass,731.0,Met-One BAM-1020 W/PM2.5 SCC,17020.0,"Chico, CA",6,California,7,Butte,39.75786,-121.60791
08/16/2023,AQS,61072003,3,10.2,ug/m3 LC,53,Visalia-W. Ashland Avenue,1,100.0,88101,PM2.5 - Local Conditions,170.0,Met One BAM-1020 Mass Monitor w/VSCC,47300.0,"Visalia-Porterville, CA",6,California,107,Tulare,36.30815,-119.3129
01/11/2023,AQS,60470003,3,4.0,ug/m3 LC,22,Merced-Coffee,1,100.0,88101,PM2.5 - Local Conditions,170.0,Met One BAM-1020 Mass Monitor w/VSCC,32900.0,"Merced, CA",6,California,47,Merced,37.281853,-120.433671
03/19/2023,AQS,60712002,1,6.2,ug/m3 LC,34,Fontana,1,100.0,88101,PM2.5 - Local Conditions,145.0,R & P Model 2025 PM-2.5 Sequential Air Sampler w/VSCC,40140.0,"Riverside-San Bernardino-Ontario, CA",6,California,71,San Bernardino,34.10002,-117.49201
06/05/2023,AQS,60074001,3,9.2,ug/m3 LC,51,"TRAFFIC, RURAL PAVED ROAD",1,100.0,88502,Acceptable PM2.5 AQI & Speciation Mass,731.0,Met-One BAM-1020 W/PM2.5 SCC,17020.0,"Chico, CA",6,California,7,Butte,39.327563,-121.668811
12/09/2023,AQS,60531003,3,3.9,ug/m3 LC,22,Salinas 3,1,100.0,88101,PM2.5 - Local Conditions,170.0,Met One BAM-1020 Mass Monitor w/VSCC,41500.0,"Salinas, CA",6,California,53,Monterey,36.6942610009043,-121.623271
08/14/2023,AQS,60251003,3,7.9,ug/m3 LC,44,El Centro-9th Street,1,100.0,88101,PM2.5 - Local Conditions,209.0,Met One BAM-1022 Mass Monitor w/ VSCC or TE-PM2.5C,20940.0,"El Centro, CA",6,California,25,Imperial,32.79222,-115.56306
08/25/2023,AQS,60531003,3,13.3,ug/m3 LC,59,Salinas 3,1,100.0,88101,PM2.5 - Local Conditions,170.0,Met One BAM-1020 Mass Monitor w/VSCC,41500.0,"Salinas, CA",6,California,53,Monterey,36.6942610009043,-121.623271
08/20/2023,AQS,60452003,3,28.2,ug/m3 LC,87,Willits-Blosser Lane,1,100.0,88101,PM2.5 - Local Conditions,170.0,Met One BAM-1020 Mass Monitor w/VSCC,46380.0,"Ukiah, CA",6,California,45,Mendocino,39.39861,-123.35872
07/07/2023,AQS,60710005,3,7.3,ug/m3 LC,41,Crestline,1,100.0,88502,Acceptable PM2.5 AQI & Speciation Mass,171.0,Met-one BAM-1022 W/PM2.5 SCC,40140.0,"Riverside-San Bernardino-Ontario, CA",6,California,71,San Bernardino,34.2431,-117.27235
10/26/2023,AQS,60710306,2,7.5,ug/m3 LC,42,Victorville-Park Avenue,1,100.0,88101,PM2.5 - Local Conditions,170.0,Met One BAM-1020 Mass Monitor w/VSCC,40140.0,"Riverside-San Bernardino-Ontario, CA",6,California,71,San Bernardino,34.5109611108812,-117.32554
01/28/2023,AQS,60731022,3,11.9,ug/m3 LC,56,El Cajon - Lexington Elementary School,1,100.0,88101,PM2.5 - Local Conditions,238.0,Teledyne T640X at 16.67 LPM,41740.0,"San Diego-Carlsbad, CA",6,California,73,San Diego,32.7895650008594,-116.944308
10/08/2023,AQS,60650016,3,10.0,ug/m3 LC,53,Temecula,1,100.0,88502,Acceptable PM2.5 AQI & Speciation Mass,731.0,Met-One BAM-1020 W/PM2.5 SCC,40140.0,"Riverside-San Bernardino-Ontario, CA",6,California,65,Riverside,33.5830180008699,-117.072202
12/09/2023,AQS,60712002,3,2.9,ug/m3 LC,16,Fontana,1,100.0,88502,Acceptable PM2.5 AQI & Speciation Mass,731.0,Met-One BAM-1020 W/PM2.5 SCC,40140.0,"Riverside-San Bernardino-Ontario, CA",6,California,71,San Bernardino,34.10002,-117.49201
07/10/2023,AQS,60431001,3,12.9,ug/m3 LC,58,Yosemite NP-Yosemite Village Vistor Center,1,100.0,88502,Acceptable PM2.5 AQI & Speciation Mass,731.0,Met-One BAM-1020 W/PM2.5 SCC,,,6,California,43,Mariposa,37.748707,-119.587094
09/01/2023,AQS,60250005,3,15.8,ug/m3 LC,63,Calexico-Ethel Street,1,100.0,88101,PM2.5 - Local Conditions,170.0,Met One BAM-1020 Mass Monitor w/VSCC,20940.0,"El Centro, CA",6,California,25,Imperial,32.67618,-115.48307
03/01/2023,AQS,60712002,11,4.5,ug/m3 LC,25,Fontana,1,100.0,88502,Acceptable PM2.5 AQI & Speciation Mass,810.0,Met One SASS/SuperSASS Teflon,40140.0,"Riverside-San Bernardino-Ontario, CA",6,California,71,San Bernardino,34.10002,-117.49201
06/14/2023,AQS,60250005,3,6.9,ug/m3 LC,38,Calexico-Ethel Street,1,100.0,88101,PM2.5 - Local Conditions,170.0,Met One BAM-1020 Mass Monitor w/VSCC,20940.0,"El Centro, CA",6,California,25,Imperial,32.67618,-115.48307
05/12/2023,AQS,61010003,3,8.0,ug/m3 LC,44,Yuba City,1,100.0,88101,PM2.5 - Local Conditions,170.0,Met One BAM-1020 Mass Monitor w/VSCC,49700.0,"Yuba City, CA",6,California,101,Sutter,39.1387725442464,-121.618548986224
04/04/2023,AQS,60374010,3,3.4,ug/m3 LC,19,North Hollywood (NOHO),1,100.0,88502,Acceptable PM2.5 AQI & Speciation Mass,731.0,Met-One BAM-1020 W/PM2.5 SCC,31080.0,"Los Angeles-Long Beach-Anaheim, CA",6,California,37,Los Angeles,34.1819770008773,-118.363036
03/15/2023,AQS,60670012,4,4.6,ug/m3 LC,26,Folsom-Natoma St.,1,100.0,88101,PM2.5 - Local Conditions,170.0,Met One BAM-1020 Mass Monitor w/VSCC,40900.0,"Sacramento--Roseville--Arden-Arcade, CA",6,California,67,Sacramento,38.683304,-121.164457
06/26/2023,AQS,60290010,3,8.8,ug/m3 LC,49,Bakersfield-Golden / M St,1,100.0,88101,PM2.5 - Local Conditions,170.0,Met One BAM-1020 Mass Monitor w/VSCC,12540.0,"Bakersfield, CA",6,California,29,Kern,35.385574,-119.015009
11/05/2023,AQS,60290018,1,1.2,ug/m3 LC,7,Ridgecrest-Ward,1,100.0,88101,PM2.5 - Local Conditions,170.0,Met One BAM-1020 Mass Monitor w/VSCC,12540.0,"Bakersfield, CA",6,California,29,Kern,35.6429431008838,-117.715066487047
03/09/2023,AQS,61110007,3,3.9,ug/m3 LC,22,Thousand Oaks,1,100.0,88101,PM2.5 - Local Conditions,170.0,Met One BAM-1020 Mass Monitor w/VSCC,37100.0,"Oxnard-Thousand Oaks-Ventura, CA",6,California,111,Ventura,34.210169,-118.870509
09/21/2023,AQS,60718001,3,3.1,ug/m3 LC,17,Big Bear,1,100.0,88101,PM2.5 - Local Conditions,209.0,Met One BAM-1022 Mass Monitor w/ VSCC or TE-PM2.5C,40140.0,"Riverside-San Bernardino-Ontario, CA",6,California,71,San Bernardino,34.2646400008783,-116.86147
01/04/2023,AQS,60970004,3,4.2,ug/m3 LC,23,Sebastopol,1,100.0,88101,PM2.5 - Local Conditions,170.0,Met One BAM-1020 Mass Monitor w/VSCC,42220.0,"Santa Rosa, CA",6,California,97,Sonoma,38.403765,-122.818294
02/01/2023,AQS,60610004,3,11.0,ug/m3 LC,55,Colfax-City Hall,1,100.0,88502,Acceptable PM2.5 AQI & Speciation Mass,731.0,Met-One BAM-1020 W/PM2.5 SCC,40900.0,"Sacramento--Roseville--Arden-Arcade, CA",6,California,61,Placer,39.100174496,-120.953831711
05/06/2023,AQS,60655001,1,2.5,ug/m3 LC,14,Palm Springs,1,100.0,88101,PM2.5 - Local Conditions,145.0,R & P Model 2025 PM-2.5 Sequential Air Sampler w/VSCC,40140.0,"Riverside-San Bernardino-Ontario, CA",6,California,65,Riverside,33.85275,-116.54101
01/16/2023,AQS,61050002,1,8.5,ug/m3 LC,47,Weaverville-Courthouse,1,100.0,88502,Acceptable PM2.5 AQI & Speciation Mass,731.0,Met-One BAM-1020 W/PM2.5 SCC,,,6,California,105,Trinity,40.73475,-122.9412
04/19/2023,AQS,60611004,3,5.2,ug/m3 LC,29,Tahoe City-Fairway Drive,1,100.0,88502,Acceptable PM2.5 AQI & Speciation Mass,731.0,Met-One BAM-1020 W/PM2.5 SCC,40900.0,"Sacramento--Roseville--Arden-Arcade, CA",6,California,61,Placer,39.1660166666667,-120.148833333333
09/14/2023,AQS,60010015,3,8.9,ug/m3 LC,49,Pleasanton - Owens Ct,1,100.0,88101,PM2.5 - Local Conditions,170.0,Met One BAM-1020 Mass Monitor w/VSCC,41860.0,"San Francisco-Oakland-Hayward, CA",6,California,1,Alameda,37.7012220009132,-121.903019
12/27/2023,AQS,60290010,3,42.3,ug/m3 LC,118,Bakersfield-Golden / M St,1,100.0,88101,PM2.5 - Local Conditions,170.0,Met One BAM-1020 Mass Monitor w/VSCC,12540.0,"Bakersfield, CA",6,California,29,Kern,35.385574,-119.015009
02/12/2023,AQS,60450006,3,6.6,ug/m3 LC,37,Ukiah-Library,1,100.0,88101,PM2.5 - Local Conditions,170.0,Met One BAM-1020 Mass Monitor w/VSCC,46380.0,"Ukiah, CA",6,California,45,Mendocino,39.15047,-123.20655
06/07/2023,AQS,60731006,23,4.9,ug/m3 LC,27,Alpine,1,100.0,88101,PM2.5 - Local Conditions,738.0,Teledyne T640X at 16.67 LPM (Corrected),41740.0,"San Diego-Carlsbad, CA",6,California,73,San Diego,32.8423180008601,-116.768293
08/24/2023,AQS,60110007,1,13.3,ug/m3 LC,59,Cortina Indian Rancheria,1,100.0,88101,PM2.5 - Local Conditions,170.0,Met One BAM-1020 Mass Monitor w/VSCC,,,6,California,11,Colusa,39.0212210009231,-122.281803
11/08/2023,AQS,60371302,3,14.1,ug/m3 LC,60,Compton,1,100.0,88502,Acceptable PM2.5 AQI & Speciation Mass,733.0,Met-One BAM W/PM2.5 VSCC,31080.0,"Los Angeles-Long Beach-Anaheim, CA",6,California,37,Los Angeles,33.9013890008739,-118.205
12/29/2023,AQS,60771003,3,12.5,ug/m3 LC,57,Stockton - University Park,1,100.0,88101,PM2.5 - Local Conditions,170.0,Met One BAM-1020 Mass Monitor w/VSCC,44700.0,"Stockton-Lodi, CA",6,California,77,San Joaquin,37.961578,-121.281414
02/06/2023,AQS,60590007,3,4.8,ug/m3 LC,27,Anaheim,1,100.0,88101,PM2.5 - Local Conditions,170.0,Met One BAM-1020 Mass Monitor w/VSCC,31080.0,"Los Angeles-Long Beach-Anaheim, CA",6,California,59,Orange,33.83062,-117.93845
09/10/2023,AQS,60631006,3,1.9,ug/m3 LC,11,Quincy-N Church Street,1,100.0,88101,PM2.5 - Local Conditions,209.0,Met One BAM-1022 Mass Monitor w/ VSCC or TE-PM2.5C,,,6,California,63,Plumas,39.9395670009288,-120.944376
07/18/2023,AQS,60772010,3,15.5,ug/m3 LC,63,Manteca,1,100.0,88101,PM2.5 - Local Conditions,170.0,Met One BAM-1020 Mass Monitor w/VSCC,44700.0,"Stockton-Lodi, CA",6,California,77,San Joaquin,37.793392,-121.247874
01/26/2023,AQS,60371103,1,8.1,ug/m3 LC,45,Los Angeles-North Main Street,1,100.0,88101,PM2.5 - Local Conditions,145.0,R & P Model 2025 PM-2.5 Sequential Air Sampler w/VSCC,31080.0,"Los Angeles-Long Beach-Anaheim, CA",6,California,37,Los Angeles,34.0665900008759,-118.22688
04/20/2023,AQS,60811001,3,10.0,ug/m3 LC,53,Redwood City,1,100.0,88101,PM2.5 - Local Conditions,170.0,Met One BAM-1020 Mass Monitor w/VSCC,41860.0,"San Francisco-Oakland-Hayward, CA",6,California,81,San Mateo,37.482934,-122.20337
10/01/2023,AQS,60010007,3,6.5,ug/m3 LC,36,Livermore,1,100.0,88101,PM2.5 - Local Conditions,170.0,Met One BAM-1020 Mass Monitor w/VSCC,41860.0,"San Francisco-Oakland-Hayward, CA",6,California,1,Alameda,37.687526,-121.784217
01/30/2023,AQS,60311004,3,7.1,ug/m3 LC,39,Hanford-Irwin,1,100.0,88101,PM2.5 - Local Conditions,170.0,Met One BAM-1020 Mass Monitor w/VSCC,25260.0,"Hanford-Corcoran, CA",6,California,31,Kings,36.31567,-119.643447
03/12/2023,AQS,60772010,3,1.8,ug/m3 LC,10,Manteca,1,100.0,88101,PM2.5 - Local Conditions,170.0,Met One BAM-1020 Mass Monitor w/VSCC,44700.0,"Stockton-Lodi, CA",6,California,77,San Joaquin,37.793392,-121.247874
06/14/2023,AQS,60719002,1,4.3,ug/m3 LC,24,Joshua Tree NP - Black Rock,1,100.0,88502,Acceptable PM2.5 AQI & Speciation Mass,707.0,"IMPROVE Module A with Cyclone Inlet-Teflon Filter, 2.2 sq. cm.",40140.0,"Riverside-San Bernardino-Ontario, CA",6,California,71,San Bernardino,34.06957,-116.38893
06/26/2023,AQS,60072003,3,8.9,ug/m3 LC,49,Paradise-Clark,1,100.0,88502,Acceptable PM2.5 AQI & Speciation Mass,731.0,Met-One BAM-1020 W/PM2.5 SCC,17020.0,"Chico, CA",6,California,7,Butte,39.75786,-121.60791
09/11/2023,AQS,60590007,1,13.0,ug/m3 LC,58,Anaheim,1,100.0,88101,PM2.5 - Local Conditions,145.0,R & P Model 2025 PM-2.5 Sequential Air Sampler w/VSCC,31080.0,"Los Angeles-Long Beach-Anaheim, CA",6,California,59,Orange,33.83062,-117.93845
04/26/2023,AQS,60530008,3,6.5,ug/m3 LC,36,King City 2,1,100.0,88101,PM2.5 - Local Conditions,170.0,Met One BAM-1020 Mass Monitor w/VSCC,41500.0,"Salinas, CA",6,California,53,Monterey,36.2092860008996,-121.126371
02/25/2023,AQS,60792004,1,0.7,ug/m3 LC,4,Mesa2,1,100.0,88101,PM2.5 - Local Conditions,170.0,Met One BAM-1020 Mass Monitor w/VSCC,42020.0,"San Luis Obispo-Paso Robles-Arroyo Grande, CA",6,California,79,San Luis Obispo,35.02083,-120.56388
05/29/2023,AQS,60250007,3,9.6,ug/m3 LC,52,Brawley-220 Main Street,1,100.0,88101,PM2.5 - Local Conditions,209.0,Met One BAM-1022 Mass Monitor w/ VSCC or TE-PM2.5C,20940.0,"El Centro, CA",6,California,25,Imperial,32.97833,-115.53917
10/24/2023,AQS,60371201,1,8.6,ug/m3 LC,48,Reseda,1,100.0,88101,PM2.5 - Local Conditions,145.0,R & P Model 2025 PM-2.5 Sequential Air Sampler w/VSCC,31080.0,"Los Angeles-Long Beach-Anaheim, CA",6,California,37,Los Angeles,34.19925,-118.53276
03/10/2023,AQS,60271033,22,1.8,ug/m3 LC,10,Stn.1 Big Pine Paiute site,1,100.0,88101,PM2.5 - Local Conditions,736.0,Teledyne T640 at 5.0 LPM (Corrected),13860.0,"Bishop, CA",6,California,27,Inyo,37.155494,-118.293547
07/09/2023,AQS,60730077,23,9.9,ug/m3 LC,52,Campo Indian Reservation,1,100.0,88101,PM2.5 - Local Conditions,736.0,Teledyne T640 at 5.0 LPM (Corrected),41740.0,"San Diego-Carlsbad, CA",6,California,73,San Diego,32.6509000008575,-116.365
12/16/2023,AQS,60710306,2,16.0,ug/m3 LC,64,Victorville-Park Avenue,1,100.0,88101,PM2.5 - Local Conditions,170.0,Met One BAM-1020 Mass Monitor w/VSCC,40140.0,"Riverside-San Bernardino-Ontario, CA",6,California,71,San Bernardino,34.5109611108812,-117.32554
02/27/2023,AQS,60010015,3,5.1,ug/m3 LC,28,Pleasanton - Owens Ct,1,100.0,88101,PM2.5 - Local Conditions,170.0,Met One BAM-1020 Mass Monitor w/VSCC,41860.0,"San Francisco-Oakland-Hayward, CA",6,California,1,Alameda,37.7012220009132,-121.903019
01/21/2023,AQS,60374008,1,17.2,ug/m3 LC,66,Long Beach-Route 710 Near Road,1,100.0,88101,PM2.5 - Local Conditions,145.0,R & P Model 2025 PM-2.5 Sequential Air Sampler w/VSCC,31080.0,"Los Angeles-Long Beach-Anaheim, CA",6,California,37,Los Angeles,33.8596620008734,-118.200707
01/25/2023,AQS,60798002,3,10.7,ug/m3 LC,54,Atascadero,1,100.0,88101,PM2.5 - Local Conditions,170.0,Met One BAM-1020 Mass Monitor w/VSCC,42020.0,"San Luis Obispo-Paso Robles-Arroyo Grande, CA",6,California,79,San Luis Obispo,35.49453,-120.66617
09/19/2023,AQS,60074001,3,7.8,ug/m3 LC,43,"TRAFFIC, RURAL PAVED ROAD",1,100.0,88502,Acceptable PM2.5 AQI & Speciation Mass,731.0,Met-One BAM-1020 W/PM2.5 SCC,17020.0,"Chico, CA",6,California,7,Butte,39.327563,-121.668811
07/31/2023,AQS,60590007,3,12.2,ug/m3 LC,57,Anaheim,1,100.0,88101,PM2.5 - Local Conditions,170.0,Met One BAM-1020 Mass Monitor w/VSCC,31080.0,"Los Angeles-Long Beach-Anaheim, CA",6,California,59,Orange,33.83062,-117.93845
04/16/2023,AQS,60950004,4,3.4,ug/m3 LC,19,Vallejo,1,100.0,88101,PM2.5 - Local Conditions,170.0,Met One BAM-1020 Mass Monitor w/VSCC,46700.0,"Vallejo-Fairfield, CA",6,California,95,Solano,38.102507,-122.237976
06/24/2023,AQS,60658001,3,11.0,ug/m3 LC,55,Rubidoux,1,100.0,88101,PM2.5 - Local Conditions,170.0,Met One BAM-1020 Mass Monitor w/VSCC,40140.0,"Riverside-San Bernardino-Ontario, CA",6,California,65,Riverside,33.9995800008751,-117.41601
05/31/2023,AQS,60374008,1,4.3,ug/m3 LC,24,Long Beach-Route 710 Near Road,1,100.0,88101,PM2.5 - Local Conditions,145.0,R & P Model 2025 PM-2.5 Sequential Air Sampler w/VSCC,31080.0,"Los Angeles-Long Beach-Anaheim, CA",6,California,37,Los Angeles,33.8596620008734,-118.200707
09/08/2023,AQS,60150007,1,6.2,ug/m3 LC,34,Crescent City-Crescent Elk School,1,100.0,88502,Acceptable PM2.5 AQI & Speciation Mass,731.0,Met-One BAM-1020 W/PM2.5 SCC,18860.0,"Crescent City, CA",6,California,15,Del Norte,41.7561300009374,-124.20347
07/05/2023,AQS,60610003,1,6.3,ug/m3 LC,35,Auburn-Atwood,1,100.0,88101,PM2.5 - Local Conditions,170.0,Met One BAM-1020 Mass Monitor w/VSCC,40900.0,"Sacramento--Roseville--Arden-Arcade, CA",6,California,61,Placer,38.93568,-121.09959
09/14/2023,AQS,60010011,3,4.9,ug/m3 LC,27,Oakland West,1,100.0,88101,PM2.5 - Local Conditions,170.0,Met One BAM-1020 Mass Monitor w/VSCC,41860.0,"San Francisco-Oakland-Hayward, CA",6,California,1,Alameda,37.814781,-122.282347
02/23/2023,AQS,60773005,3,-0.1,ug/m3 LC,0,Tracy-Airport,1,100.0,88502,Acceptable PM2.5 AQI & Speciation Mass,731.0,Met-One BAM-1020 W/PM2.5 SCC,44700.0,"Stockton-Lodi, CA",6,California,77,San Joaquin,37.682635,-121.442495
11/04/2023,AQS,60450006,3,2.0,ug/m3 LC,11,Ukiah-Library,1,100.0,88101,PM2.5 - Local Conditions,170.0,Met One BAM-1020 Mass Monitor w/VSCC,46380.0,"Ukiah, CA",6,California,45,Mendocino,39.15047,-123.20655
05/12/2023,AQS,60376012,3,12.9,ug/m3 LC,58,Santa Clarita,1,100.0,88502,Acceptable PM2.5 AQI & Speciation Mass,731.0,Met-One BAM-1020 W/PM2.5 SCC,31080.0,"Los Angeles-Long Beach-Anaheim, CA",6,California,37,Los Angeles,34.38344,-118.5284
10/08/2023,AQS,60192008,3,7.5,ug/m3 LC,42,Huron,1,100.0,88502,Acceptable PM2.5 AQI & Speciation Mass,731.0,Met-One BAM-1020 W/PM2.5 SCC,23420.0,"Fresno, CA",6,California,19,Fresno,36.198672,-120.101096
01/31/2023,AirNow,60932001,1,14.2,ug/m3 LC,61,Yreka,1,100.0,88101,PM2.5 - Local Conditions,,,,,6,California,93,Siskiyou,41.726892,-122.633579
09/04/2023,AQS,60271018,21,2.0,ug/m3 LC,11,Lone Pine Paiute-Shoshone Reservation,1,100.0,88101,PM2.5 - Local Conditions,736.0,Teledyne T640 at 5.0 LPM (Corrected),13860.0,"Bishop, CA",6,California,27,Inyo,36.5955560009034,-118.049167
01/22/2023,AQS,60310004,8,16.0,ug/m3 LC,64,Corcoran-Patterson,1,100.0,88101,PM2.5 - Local Conditions,170.0,Met One BAM-1020 Mass Monitor w/VSCC,25260.0,"Hanford-Corcoran, CA",6,California,31,Kings,36.102244,-119.56565
07/12/2023,AQS,61010003,4,6.7,ug/m3 LC,37,Yuba City,1,100.0,88101,PM2.5 - Local Conditions,170.0,Met One BAM-1020 Mass Monitor w/VSCC,49700.0,"Yuba City, CA",6,California,101,Sutter,39.1387725442464,-121.618548986224
11/09/2023,AQS,60792004,1,6.5,ug/m3 LC,36,Mesa2,1,100.0,88101,PM2.5 - Local Conditions,170.0,Met One BAM-1020 Mass Monitor w/VSCC,42020.0,"San Luis Obispo-Paso Robles-Arroyo Grande, CA",6,California,79,San Luis Obispo,35.02083,-120.56388
08/24/2023,AQS,61072010,3,12.3,ug/m3 LC,57,Porterville,1,100.0,88502,Acceptable PM2.5 AQI & Speciation Mass,731.0,Met-One BAM-1020 W/PM2.5 SCC,47300.0,"Visalia-Porterville, CA",6,California,107,Tulare,36.0318310008979,-119.055018
04/21/2023,AQS,60530008,3,6.5,ug/m3 LC,36,King City 2,1,100.0,88101,PM2.5 - Local Conditions,170.0,Met One BAM-1020 Mass Monitor w/VSCC,41500.0,"Salinas, CA",6,California,53,Monterey,36.2092860008996,-121.126371
01/16/2023,AQS,60670012,4,4.0,ug/m3 LC,22,Folsom-Natoma St.,1,100.0,88101,PM2.5 - Local Conditions,170.0,Met One BAM-1020 Mass Monitor w/VSCC,40900.0,"Sacramento--Roseville--Arden-Arcade, CA",6,California,67,Sacramento,38.683304,-121.164457
03/05/2023,AQS,60431001,3,1.6,ug/m3 LC,9,Yosemite NP-Yosemite Village Vistor Center,1,100.0,88502,Acceptable PM2.5 AQI & Speciation Mass,731.0,Met-One BAM-1020 W/PM2.5 SCC,,,6,California,43,Mariposa,37.748707,-119.587094
08/22/2023,AQS,60731006,3,6.2,ug/m3 LC,34,Alpine,1,100.0,88101,PM2.5 - Local Conditions,638.0,Teledyne T640X at 16.67 LPM w/Network Data Alignment enabled,41740.0,"San Diego-Carlsbad, CA",6,California,73,San Diego,32.8423180008601,-116.768293
02/08/2023,AQS,60893003,1,0.6,ug/m3 LC,3,Lassen Volcanic NP - Manzanita Lake Fire Station,1,100.0,88502,Acceptable PM2.5 AQI & Speciation Mass,707.0,"IMPROVE Module A with Cyclone Inlet-Teflon Filter, 2.2 sq. cm.",39820.0,"Redding, CA",6,California,89,Shasta,40.53999,-121.57646
07/16/2023,AQS,60731022,3,11.0,ug/m3 LC,55,El Cajon - Lexington Elementary School,1,100.0,88101,PM2.5 - Local Conditions,638.0,Teledyne T640X at 16.67 LPM w/Network Data Alignment enabled,41740.0,"San Diego-Carlsbad, CA",6,California,73,San Diego,32.7895650008594,-116.944308
06/28/2023,AQS,60392010,3,7.9,ug/m3 LC,44,Madera-City,1,100.0,88101,PM2.5 - Local Conditions,170.0,Met One BAM-1020 Mass Monitor w/VSCC,31460.0,"Madera, CA",6,California,39,Madera,36.953256,-120.034203
12/30/2023,AQS,60631010,4,13.1,ug/m3 LC,58,Portola,1,100.0,88101,PM2.5 - Local Conditions,209.0,Met One BAM-1022 Mass Monitor w/ VSCC or TE-PM2.5C,,,6,California,63,Plumas,39.81336,-120.47069
07/29/2023,AQS,60010012,3,8.1,ug/m3 LC,45,Laney College,1,100.0,88101,PM2.5 - Local Conditions,170.0,Met One BAM-1020 Mass Monitor w/VSCC,41860.0,"San Francisco-Oakland-Hayward, CA",6,California,1,Alameda,37.793624,-122.263376
05/24/2023,AQS,60111002,3,13.8,ug/m3 LC,60,Colusa-Sunrise Blvd,1,100.0,88101,PM2.5 - Local Conditions,170.0,Met One BAM-1020 Mass Monitor w/VSCC,,,6,California,11,Colusa,39.18919,-121.99887
05/27/2023,AQS,61112002,3,4.2,ug/m3 LC,23,Simi Valley-Cochran Street,1,100.0,88101,PM2.5 - Local Conditions,170.0,Met One BAM-1020 Mass Monitor w/VSCC,37100.0,"Oxnard-Thousand Oaks-Ventura, CA",6,California,111,Ventura,34.276316,-118.683685
08/07/2023,AQS,60111002,3,9.6,ug/m3 LC,52,Colusa-Sunrise Blvd,1,100.0,88101,PM2.5 - Local Conditions,170.0,Met One BAM-1020 Mass Monitor w/VSCC,,,6,California,11,Colusa,39.18919,-121.99887
09/26/2023,AQS,60792007,1,12.6,ug/m3 LC,58,CDF,1,100.0,88101,PM2.5 - Local Conditions,170.0,Met One BAM-1020 Mass Monitor w/VSCC,42020.0,"San Luis Obispo-Paso Robles-Arroyo Grande, CA",6,California,79,San Luis Obispo,35.0467300008874,-120.58777
03/09/2023,AQS,60990006,3,6.0,ug/m3 LC,33,Turlock,1,100.0,88101,PM2.5 - Local Conditions,170.0,Met One BAM-1020 Mass Monitor w/VSCC,33700.0,"Modesto, CA",6,California,99,Stanislaus,37.488317,-120.836008
06/30/2023,AQS,60271023,1,6.2,ug/m3 LC,34,Bishop Tribe EMO,1,100.0,88101,PM2.5 - Local Conditions,236.0,Teledyne T640 at 5.0 LPM,13860.0,"Bishop, CA",6,California,27,Inyo,37.3621369693511,-118.417477920338
10/10/2023,AQS,60290010,3,10.7,ug/m3 LC,54,Bakersfield-Golden / M St,1,100.0,88101,PM2.5 - Local Conditions,170.0,Met One BAM-1020 Mass Monitor w/VSCC,12540.0,"Bakersfield, CA",6,California,29,Kern,35.385574,-119.015009
09/22/2023,AQS,60610003,1,16.1,ug/m3 LC,64,Auburn-Atwood,1,100.0,88101,PM2.5 - Local Conditions,170.0,Met One BAM-1020 Mass Monitor w/VSCC,40900.0,"Sacramento--Roseville--Arden-Arcade, CA",6,California,61,Placer,38.93568,-121.09959
06/13/2023,AQS,60670010,3,2.3,ug/m3 LC,13,Sacramento-1309 T Street,1,100.0,88101,PM2.5 - Local Conditions,170.0,Met One BAM-1020 Mass Monitor w/VSCC,40900.0,"Sacramento--Roseville--Arden-Arcade, CA",6,California,67,Sacramento,38.56844,-121.49311
03/25/2023,AQS,60970004,3,4.3,ug/m3 LC,24,Sebastopol,1,100.0,88101,PM2.5 - Local Conditions,170.0,Met One BAM-1020 Mass Monitor w/VSCC,42220.0,"Santa Rosa, CA",6,California,97,Sonoma,38.403765,-122.818294
02/19/2023,AQS,61010003,4,14.2,ug/m3 LC,61,Yuba City,1,100.0,88101,PM2.5 - Local Conditions,170.0,Met One BAM-1020 Mass Monitor w/VSCC,49700.0,"Yuba City, CA",6,California,101,Sutter,39.1387725442464,-121.618548986224
12/25/2023,AQS,60870007,3,9.3,ug/m3 LC,51,Santa Cruz,1,100.0,88101,PM2.5 - Local Conditions,170.0,Met One BAM-1020 Mass Monitor w/VSCC,42100.0,"Santa Cruz-Watsonville, CA",6,California,87,Santa Cruz,36.983320000907,-121.98822
08/02/2023,AQS,60792007,1,6.8,ug/m3 LC,38,CDF,1,100.0,88101,PM2.5 - Local Conditions,170.0,Met One BAM-1020 Mass Monitor w/VSCC,42020.0,"San Luis Obispo-Paso Robles-Arroyo Grande, CA",6,California,79,San Luis Obispo,35.0467300008874,-120.58777
09/24/2023,AQS,60659001,3,14.4,ug/m3 LC,61,Lake Elsinore,1,100.0,88502,Acceptable PM2.5 AQI & Speciation Mass,731.0,Met-One BAM-1020 W/PM2.5 SCC,40140.0,"Riverside-San Bernardino-Ontario, CA",6,California,65,Riverside,33.67649,-117.33098
04/27/2023,AQS,60010007,3,7.2,ug/m3 LC,40,Livermore,1,100.0,88101,PM2.5 - Local Conditions,170.0,Met One BAM-1020 Mass Monitor w/VSCC,41860.0,"San Francisco-Oakland-Hayward, CA",6,California,1,Alameda,37.687526,-121.784217
06/03/2023,AQS,60510005,24,6.4,ug/m3 LC,36,Lee Vining,1,100.0,88101,PM2.5 - Local Conditions,738.0,Teledyne T640X at 16.67 LPM (Corrected),,,6,California,51,Mono,37.962069,-119.120278
09/05/2023,AQS,60650500,1,15.0,ug/m3 LC,62,29 Palms,1,100.0,88101,PM2.5 - Local Conditions,238.0,Teledyne T640X at 16.67 LPM,40140.0,"Riverside-San Bernardino-Ontario, CA",6,California,65,Riverside,33.7196900008716,-116.1897
10/01/2023,AQS,61010003,3,5.5,ug/m3 LC,31,Yuba City,1,100.0,88101,PM2.5 - Local Conditions,170.0,Met One BAM-1020 Mass Monitor w/VSCC,49700.0,"Yuba City, CA",6,California,101,Sutter,39.1387725442464,-121.618548986224
05/17/2023,AQS,60452003,3,8.8,ug/m3 LC,49,Willits-Blosser Lane,1,100.0,88101,PM2.5 - Local Conditions,170.0,Met One BAM-1020 Mass Monitor w/VSCC,46380.0,"Ukiah, CA",6,California,45,Mendocino,39.39861,-123.35872
12/03/2023,AQS,60792007,1,3.5,ug/m3 LC,19,CDF,1,100.0,88101,PM2.5 - Local Conditions,170.0,Met One BAM-1020 Mass Monitor w/VSCC,42020.0,"San Luis Obispo-Paso Robles-Arroyo Grande, CA",6,California,79,San Luis Obispo,35.0467300008874,-120.58777
01/01/2023,AQS,60571001,5,6.6,ug/m3 LC,37,Truckee-Fire Station,1,100.0,88502,Acceptable PM2.5 AQI & Speciation Mass,733.0,Met-One BAM W/PM2.5 VSCC,46020.0,"Truckee-Grass Valley, CA",6,California,57,Nevada,39.3278300009251,-120.184592
01/11/2023,AQS,60270002,1,2.2,ug/m3 LC,12,White Mountain Research Center - Owens Valley Lab,1,100.0,88101,PM2.5 - Local Conditions,238.0,Teledyne T640X at 16.67 LPM,13860.0,"Bishop, CA",6,California,27,Inyo,37.360684,-118.330783
03/16/2023,AQS,60651016,1,4.9,ug/m3 LC,27,Morongo Air Monitoring Station,1,100.0,88101,PM2.5 - Local Conditions,170.0,Met One BAM-1020 Mass Monitor w/VSCC,40140.0,"Riverside-San Bernardino-Ontario, CA",6,California,65,Riverside,33.9447129,-116.830074
12/18/2023,AirNow,60932001,1,14.4,ug/m3 LC,61,Yreka,1,100.0,88101,PM2.5 - Local Conditions,,,,,6,California,93,Siskiyou,41.726892,-122.633579
02/11/2023,AQS,60731006,23,5.9,ug/m3 LC,33,Alpine,1,100.0,88101,PM2.5 - Local Conditions,738.0,Teledyne T640X at 16.67 LPM (Corrected),41740.0,"San Diego-Carlsbad, CA",6,California,73,San Diego,32.8423180008601,-116.768293
05/10/2023,AQS,60290014,3,4.8,ug/m3 LC,27,Bakersfield-California,1,100.0,88502,Acceptable PM2.5 AQI & Speciation Mass,731.0,Met-One BAM-1020 W/PM2.5 SCC,12540.0,"Bakersfield, CA",6,California,29,Kern,35.356615,-119.062613
07/01/2023,AQS,60670006,3,12.9,ug/m3 LC,58,Sacramento-Del Paso Manor,1,100.0,88101,PM2.5 - Local Conditions,170.0,Met One BAM-1020 Mass Monitor w/VSCC,40900.0,"Sacramento--Roseville--Arden-Arcade, CA",6,California,67,Sacramento,38.6137790009202,-121.368014
08/30/2023,AQS,60410001,3,23.5,ug/m3 LC,78,San Rafael,1,100.0,88101,PM2.5 - Local Conditions,170.0,Met One BAM-1020 Mass Monitor w/VSCC,41860.0,"San Francisco-Oakland-Hayward, CA",6,California,41,Marin,37.97231,-122.520004
11/03/2023,AQS,60371302,3,18.2,ug/m3 LC,68,Compton,1,100.0,88502,Acceptable PM2.5 AQI & Speciation Mass,733.0,Met-One BAM W/PM2.5 VSCC,31080.0,"Los Angeles-Long Beach-Anaheim, CA",6,California,37,Los Angeles,33.9013890008739,-118.205
05/03/2023,AQS,60650016,3,4.4,ug/m3 LC,24,Temecula,1,100.0,88502,Acceptable PM2.5 AQI & Speciation Mass,731.0,Met-One BAM-1020 W/PM2.5 SCC,40140.0,"Riverside-San Bernardino-Ontario, CA",6,California,65,Riverside,33.5830180008699,-117.072202
06/30/2023,AQS,60731022,23,10.1,ug/m3 LC,53,El Cajon - Lexington Elementary School,1,100.0,88101,PM2.5 - Local Conditions,738.0,Teledyne T640X at 16.67 LPM (Corrected),41740.0,"San Diego-Carlsbad, CA",6,California,73,San Diego,32.7895650008594,-116.944308
01/16/2023,AQS,60670006,3,3.4,ug/m3 LC,19,Sacramento-Del Paso Manor,1,100.0,88101,PM2.5 - Local Conditions,170.0,Met One BAM-1020 Mass Monitor w/VSCC,40900.0,"Sacramento--Roseville--Arden-Arcade, CA",6,California,67,Sacramento,38.6137790009202,-121.368014
07/11/2023,AQS,60270002,1,3.9,ug/m3 LC,22,White Mountain Research Center - Owens Valley Lab,1,100.0,88502,Acceptable PM2.5 AQI & Speciation Mass,707.0,"IMPROVE Module A with Cyclone Inlet-Teflon Filter, 2.2 sq. cm.",13860.0,"Bishop, CA",6,California,27,Inyo,37.360684,-118.330783
11/17/2023,AQS,60270002,1,3.6,ug/m3 LC,20,White Mountain Research Center - Owens Valley Lab,1,100.0,88502,Acceptable PM2.5 AQI & Speciation Mass,707.0,"IMPROVE Module A with Cyclone Inlet-Teflon Filter, 2.2 sq. cm.",13860.0,"Bishop, CA",6,California,27,Inyo,37.360684,-118.330783
08/23/2023,AQS,60072003,3,6.0,ug/m3 LC,33,Paradise-Clark,1,100.0,88502,Acceptable PM2.5 AQI & Speciation Mass,731.0,Met-One BAM-1020 W/PM2.5 SCC,17020.0,"Chico, CA",6,California,7,Butte,39.75786,-121.60791
05/14/2023,AQS,60530002,3,4.0,ug/m3 LC,22,Carmel Valley,1,100.0,88101,PM2.5 - Local Conditions,170.0,Met One BAM-1020 Mass Monitor w/VSCC,41500.0,"Salinas, CA",6,California,53,Monterey,36.4818700009023,-121.73333
12/04/2023,AQS,60250005,3,13.7,ug/m3 LC,60,Calexico-Ethel Street,1,100.0,88101,PM2.5 - Local Conditions,170.0,Met One BAM-1020 Mass Monitor w/VSCC,20940.0,"El Centro, CA",6,California,25,Imperial,32.67618,-115.48307
05/18/2023,AQS,60372005,1,12.4,ug/m3 LC,57,Pasadena,1,100.0,88101,PM2.5 - Local Conditions,145.0,R & P Model 2025 PM-2.5 Sequential Air Sampler w/VSCC,31080.0,"Los Angeles-Long Beach-Anaheim, CA",6,California,37,Los Angeles,34.1326,-118.1272
