Date,Source,Site ID,POC,Daily Mean PM2.5 Concentration,Units,Daily AQI Value,Local Site Name,Daily Obs Count,Percent Complete,AQS Parameter Code,AQS Parameter Description,Method Code,Method Description,CBSA Code,CBSA Name,State FIPS Code,State,County FIPS Code,County,Site Latitude,Site Longitude
08/26/2017,AQS,60231004,1,17.5,ug/m3 LC,67,Jacobs,1,100.0,88101,PM2.5 - Local Conditions,143,R & P Model 2000 PM-2.5 Air Sampler w/VSCC,21700.0,"Eureka-Arcata-Fortuna, CA",6,California,23,Humboldt,40.7767800009332,-124.17949
01/14/2017,AQS,60530008,3,4.2,ug/m3 LC,23,King City 2,1,100.0,88101,PM2.5 - Local Conditions,170,Met One BAM-1020 Mass Monitor w/VSCC,41500.0,"Salinas, CA",6,California,53,Monterey,36.2092860008996,-121.126371
03/08/2017,AQS,60850005,3,7.5,ug/m3 LC,42,San Jose - Jackson,1,100.0,88101,PM2.5 - Local Conditions,170,Met One BAM-1020 Mass Monitor w/VSCC,41940.0,"San Jose-Sunnyvale-Santa Clara, CA",6,California,85,Santa Clara,37.348497,-121.894898
01/28/2017,AQS,60190500,1,4.3,ug/m3 LC,24,Table Mountain Air Monitoring Site,1,100.0,88101,PM2.5 - Local Conditions,170,Met One BAM-1020 Mass Monitor w/VSCC,23420.0,"Fresno, CA",6,California,19,Fresno,36.9851185574381,-119.658339349936
12/03/2017,AQS,60719010,1,2.1,ug/m3 LC,12,,1,100.0,88502,Acceptable PM2.5 AQI & Speciation Mass,707,"IMPROVE Module A with Cyclone Inlet-Teflon Filter, 2.2 sq. cm.",40140.0,"Riverside-San Bernardino-Ontario, CA",6,California,71,San Bernardino,34.1939253249244,-116.914063106369
11/03/2017,AQS,61110007,3,6.4,ug/m3 LC,36,Thousand Oaks,1,100.0,88101,PM2.5 - Local Conditions,170,Met One BAM-1020 Mass Monitor w/VSCC,37100.0,"Oxnard-Thousand Oaks-Ventura, CA",6,California,111,Ventura,34.210169,-118.870509
05/01/2017,AQS,60719004,1,11.2,ug/m3 LC,55,San Bernardino,1,100.0,88101,PM2.5 - Local Conditions,155,Thermo Electron Model RAAS2.5-300 Sequential w/VSCC,40140.0,"Riverside-San Bernardino-Ontario, CA",6,California,71,San Bernardino,34.1066780008763,-117.274063
10/06/2017,AQS,60376012,3,5.7,ug/m3 LC,32,Santa Clarita,1,100.0,88502,Acceptable PM2.5 AQI & Speciation Mass,731,Met-One BAM-1020 W/PM2.5 SCC,31080.0,"Los Angeles-Long Beach-Anaheim, CA",6,California,37,Los Angeles,34.38344,-118.5284
10/07/2017,AQS,60311004,3,18.2,ug/m3 LC,68,Hanford-Irwin,1,100.0,88101,PM2.5 - Local Conditions,170,Met One BAM-1020 Mass Monitor w/VSCC,25260.0,"Hanford-Corcoran, CA",6,California,31,Kings,36.31567,-119.643447
03/16/2017,AQS,60270002,1,4.1,ug/m3 LC,23,White Mountain Research Center - Owens Valley Lab,1,100.0,88101,PM2.5 - Local Conditions,181,Thermo Scientific TEOM 1400 FDMS or 1405 8500C FDMS w/VSCC,13860.0,"Bishop, CA",6,California,27,Inyo,37.360684,-118.330783
04/04/2017,AQS,61111004,3,11.1,ug/m3 LC,55,Ojai - East Ojai Ave,1,100.0,88101,PM2.5 - Local Conditions,170,Met One BAM-1020 Mass Monitor w/VSCC,37100.0,"Oxnard-Thousand Oaks-Ventura, CA",6,California,111,Ventura,34.44806,-119.2313
05/25/2017,AQS,60374008,1,4.1,ug/m3 LC,23,Long Beach-Route 710 Near Road,1,100.0,88101,PM2.5 - Local Conditions,145,R & P Model 2025 PM-2.5 Sequential Air Sampler w/VSCC,31080.0,"Los Angeles-Long Beach-Anaheim, CA",6,California,37,Los Angeles,33.8596620008734,-118.200707
01/01/2017,AQS,60371201,1,9.7,ug/m3 LC,52,Reseda,1,100.0,88101,PM2.5 - Local Conditions,155,Thermo Electron Model RAAS2.5-300 Sequential w/VSCC,31080.0,"Los Angeles-Long Beach-Anaheim, CA",6,California,37,Los Angeles,34.19925,-118.53276
02/17/2017,AQS,60811001,3,1.3,ug/m3 LC,7,Redwood City,1,100.0,88101,PM2.5 - Local Conditions,170,Met One BAM-1020 Mass Monitor w/VSCC,41860.0,"San Francisco-Oakland-Hayward, CA",6,California,81,San Mateo,37.482934,-122.20337
05/20/2017,AQS,60450006,3,4.0,ug/m3 LC,22,Ukiah-Library,1,100.0,88101,PM2.5 - Local Conditions,170,Met One BAM-1020 Mass Monitor w/VSCC,46380.0,"Ukiah, CA",6,California,45,Mendocino,39.15047,-123.20655
09/07/2017,AQS,60379033,1,9.4,ug/m3 LC,52,Lancaster-Division Street,1,100.0,88101,PM2.5 - Local Conditions,170,Met One BAM-1020 Mass Monitor w/VSCC,31080.0,"Los Angeles-Long Beach-Anaheim, CA",6,California,37,Los Angeles,34.6697390008831,-118.130511
03/24/2017,AQS,60631006,1,3.9,ug/m3 LC,22,Quincy-N Church Street,1,100.0,88101,PM2.5 - Local Conditions,145,R & P Model 2025 PM-2.5 Sequential Air Sampler w/VSCC,,,6,California,63,Plumas,39.9395670009288,-120.944376
05/25/2017,AQS,60131004,3,9.2,ug/m3 LC,51,San Pablo,1,100.0,88101,PM2.5 - Local Conditions,170,Met One BAM-1020 Mass Monitor w/VSCC,41860.0,"San Francisco-Oakland-Hayward, CA",6,California,13,Contra Costa,37.9604,-122.356811
09/17/2017,AQS,60650009,1,3.4,ug/m3 LC,19,Pechanga,1,100.0,88101,PM2.5 - Local Conditions,170,Met One BAM-1020 Mass Monitor w/VSCC,40140.0,"Riverside-San Bernardino-Ontario, CA",6,California,65,Riverside,33.4478670008682,-117.088649
11/23/2017,AQS,60658005,3,14.9,ug/m3 LC,62,Mira Loma (Van Buren),1,100.0,88502,Acceptable PM2.5 AQI & Speciation Mass,170,Met-one BAM-1020 W/PM2.5 SCC,40140.0,"Riverside-San Bernardino-Ontario, CA",6,California,65,Riverside,33.996360000875,-117.4924
04/17/2017,AQS,60792004,1,-0.9,ug/m3 LC,0,Mesa2,1,100.0,88101,PM2.5 - Local Conditions,170,Met One BAM-1020 Mass Monitor w/VSCC,42020.0,"San Luis Obispo-Paso Robles-Arroyo Grande, CA",6,California,79,San Luis Obispo,35.02083,-120.56388
01/26/2017,AQS,60690002,3,3.2,ug/m3 LC,18,Hollister,1,100.0,88101,PM2.5 - Local Conditions,170,Met One BAM-1020 Mass Monitor w/VSCC,41940.0,"San Jose-Sunnyvale-Santa Clara, CA",6,California,69,San Benito,36.8434250009057,-121.3621
01/13/2017,AQS,60711004,3,9.9,ug/m3 LC,52,Upland,1,100.0,88502,Acceptable PM2.5 AQI & Speciation Mass,731,Met-One BAM-1020 W/PM2.5 SCC,40140.0,"Riverside-San Bernardino-Ontario, CA",6,California,71,San Bernardino,34.10374,-117.62914
10/22/2017,AQS,60771002,4,6.9,ug/m3 LC,38,Stockton-Hazelton,1,100.0,88101,PM2.5 - Local Conditions,170,Met One BAM-1020 Mass Monitor w/VSCC,44700.0,"Stockton-Lodi, CA",6,California,77,San Joaquin,37.9507408985318,-121.268522670981
04/17/2017,AQS,60374004,3,8.2,ug/m3 LC,46,Long Beach (South),1,100.0,88101,PM2.5 - Local Conditions,170,Met One BAM-1020 Mass Monitor w/VSCC,31080.0,"Los Angeles-Long Beach-Anaheim, CA",6,California,37,Los Angeles,33.79236,-118.17533
10/10/2017,AQS,60658001,1,8.0,ug/m3 LC,44,Rubidoux,1,100.0,88101,PM2.5 - Local Conditions,145,R & P Model 2025 PM-2.5 Sequential Air Sampler w/VSCC,40140.0,"Riverside-San Bernardino-Ontario, CA",6,California,65,Riverside,33.9995800008751,-117.41601
05/28/2017,AQS,60010007,3,5.7,ug/m3 LC,32,Livermore,1,100.0,88101,PM2.5 - Local Conditions,170,Met One BAM-1020 Mass Monitor w/VSCC,41860.0,"San Francisco-Oakland-Hayward, CA",6,California,1,Alameda,37.687526,-121.784217
05/27/2017,AQS,60731014,1,-0.3,ug/m3 LC,0,Donovan,1,100.0,88502,Acceptable PM2.5 AQI & Speciation Mass,733,Met-One BAM W/PM2.5 VSCC,41740.0,"San Diego-Carlsbad, CA",6,California,73,San Diego,32.578165,-116.921374
06/15/2017,AQS,60731006,1,10.2,ug/m3 LC,53,Alpine,1,100.0,88502,Acceptable PM2.5 AQI & Speciation Mass,733,Met-One BAM W/PM2.5 VSCC,41740.0,"San Diego-Carlsbad, CA",6,California,73,San Diego,32.8423180008601,-116.768293
12/23/2017,AQS,60190011,1,50.6,ug/m3 LC,138,Fresno - Garland,1,100.0,88101,PM2.5 - Local Conditions,145,R & P Model 2025 PM-2.5 Sequential Air Sampler w/VSCC,23420.0,"Fresno, CA",6,California,19,Fresno,36.78538,-119.77321
09/29/2017,AQS,61072002,3,14.6,ug/m3 LC,61,Visalia-Church,1,100.0,88502,Acceptable PM2.5 AQI & Speciation Mass,731,Met-One BAM-1020 W/PM2.5 SCC,47300.0,"Visalia-Porterville, CA",6,California,107,Tulare,36.3321793109462,-119.291227556039
03/14/2017,AQS,60376012,3,9.7,ug/m3 LC,52,Santa Clarita,1,100.0,88502,Acceptable PM2.5 AQI & Speciation Mass,731,Met-One BAM-1020 W/PM2.5 SCC,31080.0,"Los Angeles-Long Beach-Anaheim, CA",6,California,37,Los Angeles,34.38344,-118.5284
01/07/2017,AQS,61010003,3,8.2,ug/m3 LC,46,Yuba City,1,100.0,88502,Acceptable PM2.5 AQI & Speciation Mass,731,Met-One BAM-1020 W/PM2.5 SCC,49700.0,"Yuba City, CA",6,California,101,Sutter,39.1387725442464,-121.618548986224
05/04/2017,AQS,60871005,3,4.6,ug/m3 LC,26,San Lorenzo Valley Middle School,1,100.0,88101,PM2.5 - Local Conditions,170,Met One BAM-1020 Mass Monitor w/VSCC,42100.0,"Santa Cruz-Watsonville, CA",6,California,87,Santa Cruz,37.0631500009077,-122.083092
02/08/2017,AQS,61112002,3,4.0,ug/m3 LC,22,Simi Valley-Cochran Street,1,100.0,88101,PM2.5 - Local Conditions,170,Met One BAM-1020 Mass Monitor w/VSCC,37100.0,"Oxnard-Thousand Oaks-Ventura, CA",6,California,111,Ventura,34.276316,-118.683685
05/28/2017,AQS,60631006,1,5.0,ug/m3 LC,28,Quincy-N Church Street,1,100.0,88101,PM2.5 - Local Conditions,145,R & P Model 2025 PM-2.5 Sequential Air Sampler w/VSCC,,,6,California,63,Plumas,39.9395670009288,-120.944376
05/28/2017,AQS,60290014,1,16.1,ug/m3 LC,64,Bakersfield-California,1,100.0,88101,PM2.5 - Local Conditions,145,R & P Model 2025 PM-2.5 Sequential Air Sampler w/VSCC,12540.0,"Bakersfield, CA",6,California,29,Kern,35.356615,-119.062613
03/14/2017,AQS,61111004,3,4.9,ug/m3 LC,27,Ojai - East Ojai Ave,1,100.0,88101,PM2.5 - Local Conditions,170,Met One BAM-1020 Mass Monitor w/VSCC,37100.0,"Oxnard-Thousand Oaks-Ventura, CA",6,California,111,Ventura,34.44806,-119.2313
01/09/2017,AQS,60379033,1,2.0,ug/m3 LC,11,Lancaster-Division Street,1,100.0,88101,PM2.5 - Local Conditions,170,Met One BAM-1020 Mass Monitor w/VSCC,31080.0,"Los Angeles-Long Beach-Anaheim, CA",6,California,37,Los Angeles,34.6697390008831,-118.130511
11/11/2017,AQS,60710306,2,14.3,ug/m3 LC,61,Victorville-Park Avenue,1,100.0,88101,PM2.5 - Local Conditions,170,Met One BAM-1020 Mass Monitor w/VSCC,40140.0,"Riverside-San Bernardino-Ontario, CA",6,California,71,San Bernardino,34.5109611108812,-117.32554
05/03/2017,AQS,60379033,1,7.9,ug/m3 LC,44,Lancaster-Division Street,1,100.0,88101,PM2.5 - Local Conditions,170,Met One BAM-1020 Mass Monitor w/VSCC,31080.0,"Los Angeles-Long Beach-Anaheim, CA",6,California,37,Los Angeles,34.6697390008831,-118.130511
01/30/2017,AQS,61112002,4,1.8,ug/m3 LC,10,Simi Valley-Cochran Street,1,100.0,88101,PM2.5 - Local Conditions,170,Met One BAM-1020 Mass Monitor w/VSCC,37100.0,"Oxnard-Thousand Oaks-Ventura, CA",6,California,111,Ventura,34.276316,-118.683685
03/04/2017,AQS,60772010,3,3.9,ug/m3 LC,22,Manteca,1,100.0,88101,PM2.5 - Local Conditions,170,Met One BAM-1020 Mass Monitor w/VSCC,44700.0,"Stockton-Lodi, CA",6,California,77,San Joaquin,37.793392,-121.247874
02/15/2017,AQS,61072010,3,19.7,ug/m3 LC,71,Porterville,1,100.0,88502,Acceptable PM2.5 AQI & Speciation Mass,731,Met-One BAM-1020 W/PM2.5 SCC,47300.0,"Visalia-Porterville, CA",6,California,107,Tulare,36.0318310008979,-119.055018
05/28/2017,AQS,60010012,3,5.4,ug/m3 LC,30,Laney College,1,100.0,88101,PM2.5 - Local Conditions,170,Met One BAM-1020 Mass Monitor w/VSCC,41860.0,"San Francisco-Oakland-Hayward, CA",6,California,1,Alameda,37.793624,-122.263376
09/01/2017,AQS,61072002,1,20.1,ug/m3 LC,71,Visalia-Church,1,100.0,88101,PM2.5 - Local Conditions,145,R & P Model 2025 PM-2.5 Sequential Air Sampler w/VSCC,47300.0,"Visalia-Porterville, CA",6,California,107,Tulare,36.3321793109462,-119.291227556039
04/04/2017,AQS,60430003,2,2.5,ug/m3 LC,14,Yosemite NP - Turtleback Dome,1,100.0,88502,Acceptable PM2.5 AQI & Speciation Mass,707,"IMPROVE Module A with Cyclone Inlet-Teflon Filter, 2.2 sq. cm.",,,6,California,43,Mariposa,37.71325,-119.7062
09/23/2017,AQS,60650009,1,1.3,ug/m3 LC,7,Pechanga,1,100.0,88101,PM2.5 - Local Conditions,170,Met One BAM-1020 Mass Monitor w/VSCC,40140.0,"Riverside-San Bernardino-Ontario, CA",6,California,65,Riverside,33.4478670008682,-117.088649
11/12/2017,AQS,60195001,3,12.6,ug/m3 LC,58,Clovis-Villa,1,100.0,88101,PM2.5 - Local Conditions,204,Teledyne Model 602 Beta plus w/VSCC,23420.0,"Fresno, CA",6,California,19,Fresno,36.819449,-119.716433
12/28/2017,AQS,60374004,1,35.1,ug/m3 LC,99,Long Beach (South),1,100.0,88101,PM2.5 - Local Conditions,155,Thermo Electron Model RAAS2.5-300 Sequential w/VSCC,31080.0,"Los Angeles-Long Beach-Anaheim, CA",6,California,37,Los Angeles,33.79236,-118.17533
01/22/2017,AQS,60299001,1,0.8,ug/m3 LC,4,Lebec-Peace Valley/Frazier Park Roads,1,100.0,88502,Acceptable PM2.5 AQI & Speciation Mass,707,"IMPROVE Module A with Cyclone Inlet-Teflon Filter, 2.2 sq. cm.",12540.0,"Bakersfield, CA",6,California,29,Kern,34.821921799,-118.88759767
05/01/2017,AQS,60711004,3,14.1,ug/m3 LC,60,Upland,1,100.0,88502,Acceptable PM2.5 AQI & Speciation Mass,731,Met-One BAM-1020 W/PM2.5 SCC,40140.0,"Riverside-San Bernardino-Ontario, CA",6,California,71,San Bernardino,34.10374,-117.62914
01/18/2017,AQS,60371602,1,17.5,ug/m3 LC,67,Pico Rivera #2,1,100.0,88101,PM2.5 - Local Conditions,155,Thermo Electron Model RAAS2.5-300 Sequential w/VSCC,31080.0,"Los Angeles-Long Beach-Anaheim, CA",6,California,37,Los Angeles,34.0102900008752,-118.0685
07/12/2017,AQS,60090001,3,13.0,ug/m3 LC,58,San Andreas-Gold Strike Road,1,100.0,88101,PM2.5 - Local Conditions,170,Met One BAM-1020 Mass Monitor w/VSCC,,,6,California,9,Calaveras,38.20185,-120.680277
03/25/2017,AQS,60311004,3,7.3,ug/m3 LC,41,Hanford-Irwin,1,100.0,88101,PM2.5 - Local Conditions,170,Met One BAM-1020 Mass Monitor w/VSCC,25260.0,"Hanford-Corcoran, CA",6,California,31,Kings,36.31567,-119.643447
05/21/2017,AQS,60771002,4,2.0,ug/m3 LC,11,Stockton-Hazelton,1,100.0,88101,PM2.5 - Local Conditions,170,Met One BAM-1020 Mass Monitor w/VSCC,44700.0,"Stockton-Lodi, CA",6,California,77,San Joaquin,37.9507408985318,-121.268522670981
09/28/2017,AQS,60610006,1,6.5,ug/m3 LC,36,Roseville-N Sunrise Ave,1,100.0,88101,PM2.5 - Local Conditions,143,R & P Model 2000 PM-2.5 Air Sampler w/VSCC,40900.0,"Sacramento--Roseville--Arden-Arcade, CA",6,California,61,Placer,38.74643,-121.26498
07/31/2017,AQS,60950004,3,7.1,ug/m3 LC,39,Vallejo,1,100.0,88101,PM2.5 - Local Conditions,170,Met One BAM-1020 Mass Monitor w/VSCC,46700.0,"Vallejo-Fairfield, CA",6,California,95,Solano,38.102507,-122.237976
11/14/2017,AQS,61030007,3,2.0,ug/m3 LC,11,Red Bluff-Walnut St. District Office,1,100.0,88101,PM2.5 - Local Conditions,170,Met One BAM-1020 Mass Monitor w/VSCC,39780.0,"Red Bluff, CA",6,California,103,Tehama,40.17093,-122.25556
09/26/2017,AQS,60772010,3,6.9,ug/m3 LC,38,Manteca,1,100.0,88101,PM2.5 - Local Conditions,170,Met One BAM-1020 Mass Monitor w/VSCC,44700.0,"Stockton-Lodi, CA",6,California,77,San Joaquin,37.793392,-121.247874
01/29/2017,AQS,61030007,3,6.3,ug/m3 LC,35,Red Bluff-Walnut St. District Office,1,100.0,88101,PM2.5 - Local Conditions,170,Met One BAM-1020 Mass Monitor w/VSCC,39780.0,"Red Bluff, CA",6,California,103,Tehama,40.17093,-122.25556
09/22/2017,AQS,60010007,3,3.4,ug/m3 LC,19,Livermore,1,100.0,88101,PM2.5 - Local Conditions,170,Met One BAM-1020 Mass Monitor w/VSCC,41860.0,"San Francisco-Oakland-Hayward, CA",6,California,1,Alameda,37.687526,-121.784217
03/07/2017,AQS,60371201,3,10.0,ug/m3 LC,53,Reseda,1,100.0,88502,Acceptable PM2.5 AQI & Speciation Mass,731,Met-One BAM-1020 W/PM2.5 SCC,31080.0,"Los Angeles-Long Beach-Anaheim, CA",6,California,37,Los Angeles,34.19925,-118.53276
02/13/2017,AQS,60590007,1,7.2,ug/m3 LC,40,Anaheim,1,100.0,88101,PM2.5 - Local Conditions,155,Thermo Electron Model RAAS2.5-300 Sequential w/VSCC,31080.0,"Los Angeles-Long Beach-Anaheim, CA",6,California,59,Orange,33.83062,-117.93845
11/03/2017,AQS,60990005,3,20.8,ug/m3 LC,73,Modesto-14th Street,1,100.0,88101,PM2.5 - Local Conditions,170,Met One BAM-1020 Mass Monitor w/VSCC,33700.0,"Modesto, CA",6,California,99,Stanislaus,37.642165,-120.994212
05/31/2017,AQS,60658005,1,21.4,ug/m3 LC,74,Mira Loma (Van Buren),1,100.0,88101,PM2.5 - Local Conditions,145,R & P Model 2025 PM-2.5 Sequential Air Sampler w/VSCC,40140.0,"Riverside-San Bernardino-Ontario, CA",6,California,65,Riverside,33.996360000875,-117.4924
06/12/2017,AQS,60192009,3,2.3,ug/m3 LC,13,Tranquillity,1,100.0,88101,PM2.5 - Local Conditions,170,Met One BAM-1020 Mass Monitor w/VSCC,23420.0,"Fresno, CA",6,California,19,Fresno,36.6342250009037,-120.382331
11/22/2017,AQS,60072002,3,30.1,ug/m3 LC,90,Paradise - Theater,1,100.0,88502,Acceptable PM2.5 AQI & Speciation Mass,171,Met-one BAM-1022 W/PM2.5 SCC,17020.0,"Chico, CA",6,California,7,Butte,39.77919,-121.59135
09/29/2017,AQS,60410001,3,7.7,ug/m3 LC,43,San Rafael,1,100.0,88101,PM2.5 - Local Conditions,170,Met One BAM-1020 Mass Monitor w/VSCC,41860.0,"San Francisco-Oakland-Hayward, CA",6,California,41,Marin,37.97231,-122.520004
05/31/2017,AQS,60010009,3,3.1,ug/m3 LC,17,Oakland,1,100.0,88101,PM2.5 - Local Conditions,170,Met One BAM-1020 Mass Monitor w/VSCC,41860.0,"San Francisco-Oakland-Hayward, CA",6,California,1,Alameda,37.743065,-122.169935
08/05/2017,AQS,60010013,3,1.1,ug/m3 LC,6,Berkeley- Aquatic Park,1,100.0,88101,PM2.5 - Local Conditions,170,Met One BAM-1020 Mass Monitor w/VSCC,41860.0,"San Francisco-Oakland-Hayward, CA",6,California,1,Alameda,37.8647670009145,-122.302741
08/29/2017,AQS,60531003,2,9.2,ug/m3 LC,51,Salinas 3,1,100.0,88101,PM2.5 - Local Conditions,143,R & P Model 2000 PM-2.5 Air Sampler w/VSCC,41500.0,"Salinas, CA",6,California,53,Monterey,36.6942610009043,-121.623271
08/12/2017,AQS,60710005,3,10.3,ug/m3 LC,53,Crestline,1,100.0,88502,Acceptable PM2.5 AQI & Speciation Mass,731,Met-One BAM-1020 W/PM2.5 SCC,40140.0,"Riverside-San Bernardino-Ontario, CA",6,California,71,San Bernardino,34.2431,-117.27235
12/28/2017,AQS,60250007,1,11.4,ug/m3 LC,55,Brawley-220 Main Street,1,100.0,88101,PM2.5 - Local Conditions,145,R & P Model 2025 PM-2.5 Sequential Air Sampler w/VSCC,20940.0,"El Centro, CA",6,California,25,Imperial,32.97833,-115.53917
11/18/2017,AQS,60376012,3,6.1,ug/m3 LC,34,Santa Clarita,1,100.0,88502,Acceptable PM2.5 AQI & Speciation Mass,731,Met-One BAM-1020 W/PM2.5 SCC,31080.0,"Los Angeles-Long Beach-Anaheim, CA",6,California,37,Los Angeles,34.38344,-118.5284
10/30/2017,AQS,60631006,1,13.7,ug/m3 LC,60,Quincy-N Church Street,1,100.0,88101,PM2.5 - Local Conditions,145,R & P Model 2025 PM-2.5 Sequential Air Sampler w/VSCC,,,6,California,63,Plumas,39.9395670009288,-120.944376
06/26/2017,AQS,60131004,3,2.7,ug/m3 LC,15,San Pablo,1,100.0,88101,PM2.5 - Local Conditions,170,Met One BAM-1020 Mass Monitor w/VSCC,41860.0,"San Francisco-Oakland-Hayward, CA",6,California,13,Contra Costa,37.9604,-122.356811
08/12/2017,AQS,60650009,1,10.1,ug/m3 LC,53,Pechanga,1,100.0,88101,PM2.5 - Local Conditions,170,Met One BAM-1020 Mass Monitor w/VSCC,40140.0,"Riverside-San Bernardino-Ontario, CA",6,California,65,Riverside,33.4478670008682,-117.088649
06/12/2017,AQS,60130002,3,10.6,ug/m3 LC,54,Concord,1,100.0,88101,PM2.5 - Local Conditions,170,Met One BAM-1020 Mass Monitor w/VSCC,41860.0,"San Francisco-Oakland-Hayward, CA",6,California,13,Contra Costa,37.936013,-122.026154
03/26/2017,AQS,60292009,3,4.5,ug/m3 LC,25,Lebec,1,100.0,88502,Acceptable PM2.5 AQI & Speciation Mass,731,Met-One BAM-1020 W/PM2.5 SCC,12540.0,"Bakersfield, CA",6,California,29,Kern,34.841567,-118.860588
11/27/2017,AQS,60710027,1,17.0,ug/m3 LC,66,Ontario-Route 60 Near Road,1,100.0,88101,PM2.5 - Local Conditions,145,R & P Model 2025 PM-2.5 Sequential Air Sampler w/VSCC,40140.0,"Riverside-San Bernardino-Ontario, CA",6,California,71,San Bernardino,34.030833,-117.61722
01/27/2017,AQS,60651016,2,0.7,ug/m3 LC,4,Morongo Air Monitoring Station,1,100.0,88101,PM2.5 - Local Conditions,143,R & P Model 2000 PM-2.5 Air Sampler w/VSCC,40140.0,"Riverside-San Bernardino-Ontario, CA",6,California,65,Riverside,33.9447129,-116.830074
05/25/2017,AQS,60310004,1,4.4,ug/m3 LC,24,Corcoran-Patterson,1,100.0,88101,PM2.5 - Local Conditions,145,R & P Model 2025 PM-2.5 Sequential Air Sampler w/VSCC,25260.0,"Hanford-Corcoran, CA",6,California,31,Kings,36.102244,-119.56565
09/05/2017,AQS,60670010,3,9.5,ug/m3 LC,52,Sacramento-1309 T Street,1,100.0,88502,Acceptable PM2.5 AQI & Speciation Mass,731,Met-One BAM-1020 W/PM2.5 SCC,40900.0,"Sacramento--Roseville--Arden-Arcade, CA",6,California,67,Sacramento,38.56844,-121.49311
11/18/2017,AQS,60010011,3,13.3,ug/m3 LC,59,Oakland West,1,100.0,88101,PM2.5 - Local Conditions,170,Met One BAM-1020 Mass Monitor w/VSCC,41860.0,"San Francisco-Oakland-Hayward, CA",6,California,1,Alameda,37.814781,-122.282347
03/11/2017,AQS,60290011,3,4.3,ug/m3 LC,24,Mojave,1,100.0,88101,PM2.5 - Local Conditions,170,Met One BAM-1020 Mass Monitor w/VSCC,12540.0,"Bakersfield, CA",6,California,29,Kern,35.0505513494936,-118.147293620967
12/29/2017,AQS,61111004,3,11.1,ug/m3 LC,55,Ojai - East Ojai Ave,1,100.0,88101,PM2.5 - Local Conditions,170,Met One BAM-1020 Mass Monitor w/VSCC,37100.0,"Oxnard-Thousand Oaks-Ventura, CA",6,California,111,Ventura,34.44806,-119.2313
11/16/2017,AQS,60010012,3,9.2,ug/m3 LC,51,Laney College,1,100.0,88101,PM2.5 - Local Conditions,170,Met One BAM-1020 Mass Monitor w/VSCC,41860.0,"San Francisco-Oakland-Hayward, CA",6,California,1,Alameda,37.793624,-122.263376
05/07/2017,AQS,61110007,3,6.5,ug/m3 LC,36,Thousand Oaks,1,100.0,88101,PM2.5 - Local Conditions,170,Met One BAM-1020 Mass Monitor w/VSCC,37100.0,"Oxnard-Thousand Oaks-Ventura, CA",6,California,111,Ventura,34.210169,-118.870509
02/19/2017,AQS,60130002,3,6.8,ug/m3 LC,38,Concord,1,100.0,88101,PM2.5 - Local Conditions,170,Met One BAM-1020 Mass Monitor w/VSCC,41860.0,"San Francisco-Oakland-Hayward, CA",6,California,13,Contra Costa,37.936013,-122.026154
01/04/2017,AQS,60592022,1,4.6,ug/m3 LC,26,Mission Viejo,1,100.0,88101,PM2.5 - Local Conditions,155,Thermo Electron Model RAAS2.5-300 Sequential w/VSCC,31080.0,"Los Angeles-Long Beach-Anaheim, CA",6,California,59,Orange,33.63003,-117.67593
04/12/2017,AQS,60658005,3,11.5,ug/m3 LC,55,Mira Loma (Van Buren),1,100.0,88502,Acceptable PM2.5 AQI & Speciation Mass,170,Met-one BAM-1020 W/PM2.5 SCC,40140.0,"Riverside-San Bernardino-Ontario, CA",6,California,65,Riverside,33.996360000875,-117.4924
03/28/2017,AQS,60890004,1,2.8,ug/m3 LC,16,Redding - Health Department,1,100.0,88101,PM2.5 - Local Conditions,143,R & P Model 2000 PM-2.5 Air Sampler w/VSCC,39820.0,"Redding, CA",6,California,89,Shasta,40.550130000932,-122.38092
09/09/2017,AQS,61050002,1,28.0,ug/m3 LC,86,Weaverville-Courthouse,1,100.0,88502,Acceptable PM2.5 AQI & Speciation Mass,731,Met-One BAM-1020 W/PM2.5 SCC,,,6,California,105,Trinity,40.73475,-122.9412
09/12/2017,AQS,60650009,1,6.4,ug/m3 LC,36,Pechanga,1,100.0,88101,PM2.5 - Local Conditions,170,Met One BAM-1020 Mass Monitor w/VSCC,40140.0,"Riverside-San Bernardino-Ontario, CA",6,California,65,Riverside,33.4478670008682,-117.088649
01/10/2017,AQS,60299001,1,0.4,ug/m3 LC,2,Lebec-Peace Valley/Frazier Park Roads,1,100.0,88502,Acceptable PM2.5 AQI & Speciation Mass,707,"IMPROVE Module A with Cyclone Inlet-Teflon Filter, 2.2 sq. cm.",12540.0,"Bakersfield, CA",6,California,29,Kern,34.821921799,-118.88759767
09/30/2017,AQS,60371103,9,31.8,ug/m3 LC,93,Los Angeles-North Main Street,1,100.0,88502,Acceptable PM2.5 AQI & Speciation Mass,170,Met-one BAM-1020 W/PM2.5 SCC,31080.0,"Los Angeles-Long Beach-Anaheim, CA",6,California,37,Los Angeles,34.0665900008759,-118.22688
04/06/2017,AQS,60130002,3,9.0,ug/m3 LC,50,Concord,1,100.0,88101,PM2.5 - Local Conditions,170,Met One BAM-1020 Mass Monitor w/VSCC,41860.0,"San Francisco-Oakland-Hayward, CA",6,California,13,Contra Costa,37.936013,-122.026154
04/13/2017,AQS,61030007,3,0.3,ug/m3 LC,2,Red Bluff-Walnut St. District Office,1,100.0,88101,PM2.5 - Local Conditions,170,Met One BAM-1020 Mass Monitor w/VSCC,39780.0,"Red Bluff, CA",6,California,103,Tehama,40.17093,-122.25556
02/04/2017,AQS,61030007,3,1.9,ug/m3 LC,11,Red Bluff-Walnut St. District Office,1,100.0,88101,PM2.5 - Local Conditions,170,Met One BAM-1020 Mass Monitor w/VSCC,39780.0,"Red Bluff, CA",6,California,103,Tehama,40.17093,-122.25556
07/14/2017,AQS,60950004,4,8.8,ug/m3 LC,49,Vallejo,1,100.0,88101,PM2.5 - Local Conditions,170,Met One BAM-1020 Mass Monitor w/VSCC,46700.0,"Vallejo-Fairfield, CA",6,California,95,Solano,38.102507,-122.237976
08/24/2017,AQS,60798002,3,7.9,ug/m3 LC,44,Atascadero,1,100.0,88101,PM2.5 - Local Conditions,170,Met One BAM-1020 Mass Monitor w/VSCC,42020.0,"San Luis Obispo-Paso Robles-Arroyo Grande, CA",6,California,79,San Luis Obispo,35.49453,-120.66617
12/20/2017,AQS,60970004,3,3.0,ug/m3 LC,17,Sebastopol,1,100.0,88101,PM2.5 - Local Conditions,170,Met One BAM-1020 Mass Monitor w/VSCC,42220.0,"Santa Rosa, CA",6,California,97,Sonoma,38.403765,-122.818294
06/30/2017,AQS,60731022,1,10.7,ug/m3 LC,54,El Cajon - Lexington Elementary School,1,100.0,88502,Acceptable PM2.5 AQI & Speciation Mass,733,Met-One BAM W/PM2.5 VSCC,41740.0,"San Diego-Carlsbad, CA",6,California,73,San Diego,32.7895650008594,-116.944308
01/14/2017,AQS,60811001,3,6.2,ug/m3 LC,34,Redwood City,1,100.0,88101,PM2.5 - Local Conditions,170,Met One BAM-1020 Mass Monitor w/VSCC,41860.0,"San Francisco-Oakland-Hayward, CA",6,California,81,San Mateo,37.482934,-122.20337
04/23/2017,AQS,60690002,3,3.0,ug/m3 LC,17,Hollister,1,100.0,88101,PM2.5 - Local Conditions,170,Met One BAM-1020 Mass Monitor w/VSCC,41940.0,"San Jose-Sunnyvale-Santa Clara, CA",6,California,69,San Benito,36.8434250009057,-121.3621
08/11/2017,AQS,60832004,1,7.1,ug/m3 LC,39,Lompoc H Street,1,100.0,88101,PM2.5 - Local Conditions,170,Met One BAM-1020 Mass Monitor w/VSCC,42200.0,"Santa Maria-Santa Barbara, CA",6,California,83,Santa Barbara,34.6378200008827,-120.4575
07/14/2017,AQS,60792006,3,7.8,ug/m3 LC,43,San Luis Obispo,1,100.0,88101,PM2.5 - Local Conditions,170,Met One BAM-1020 Mass Monitor w/VSCC,42020.0,"San Luis Obispo-Paso Robles-Arroyo Grande, CA",6,California,79,San Luis Obispo,35.25651,-120.6693
06/05/2017,AQS,60690002,3,6.8,ug/m3 LC,38,Hollister,1,100.0,88101,PM2.5 - Local Conditions,170,Met One BAM-1020 Mass Monitor w/VSCC,41940.0,"San Jose-Sunnyvale-Santa Clara, CA",6,California,69,San Benito,36.8434250009057,-121.3621
04/07/2017,AQS,60410002,1,5.7,ug/m3 LC,32,Point Reyes NS Ranger Station,1,100.0,88502,Acceptable PM2.5 AQI & Speciation Mass,707,"IMPROVE Module A with Cyclone Inlet-Teflon Filter, 2.2 sq. cm.",41860.0,"San Francisco-Oakland-Hayward, CA",6,California,41,Marin,38.122978522,-122.909439692
04/03/2017,AQS,60190500,1,7.6,ug/m3 LC,42,Table Mountain Air Monitoring Site,1,100.0,88101,PM2.5 - Local Conditions,170,Met One BAM-1020 Mass Monitor w/VSCC,23420.0,"Fresno, CA",6,California,19,Fresno,36.9851185574381,-119.658339349936
09/03/2017,AQS,60731008,1,9.9,ug/m3 LC,52,Camp Pendleton,1,100.0,88502,Acceptable PM2.5 AQI & Speciation Mass,733,Met-One BAM W/PM2.5 VSCC,41740.0,"San Diego-Carlsbad, CA",6,California,73,San Diego,33.217046,-117.396249
08/27/2017,AQS,60798002,3,5.3,ug/m3 LC,29,Atascadero,1,100.0,88101,PM2.5 - Local Conditions,170,Met One BAM-1020 Mass Monitor w/VSCC,42020.0,"San Luis Obispo-Paso Robles-Arroyo Grande, CA",6,California,79,San Luis Obispo,35.49453,-120.66617
10/03/2017,AQS,60830011,3,10.4,ug/m3 LC,53,Santa Barbara,1,100.0,88101,PM2.5 - Local Conditions,170,Met One BAM-1020 Mass Monitor w/VSCC,42200.0,"Santa Maria-Santa Barbara, CA",6,California,83,Santa Barbara,34.4277749961254,-119.691217778642
06/22/2017,AQS,60658005,1,14.3,ug/m3 LC,61,Mira Loma (Van Buren),1,100.0,88101,PM2.5 - Local Conditions,145,R & P Model 2025 PM-2.5 Sequential Air Sampler w/VSCC,40140.0,"Riverside-San Bernardino-Ontario, CA",6,California,65,Riverside,33.996360000875,-117.4924
02/15/2017,AQS,60670012,3,8.7,ug/m3 LC,48,Folsom-Natoma St.,1,100.0,88101,PM2.5 - Local Conditions,170,Met One BAM-1020 Mass Monitor w/VSCC,40900.0,"Sacramento--Roseville--Arden-Arcade, CA",6,California,67,Sacramento,38.683304,-121.164457
02/14/2017,AQS,60195001,3,12.9,ug/m3 LC,58,Clovis-Villa,1,100.0,88101,PM2.5 - Local Conditions,204,Teledyne Model 602 Beta plus w/VSCC,23420.0,"Fresno, CA",6,California,19,Fresno,36.819449,-119.716433
02/06/2017,AQS,60771002,3,5.7,ug/m3 LC,32,Stockton-Hazelton,1,100.0,88101,PM2.5 - Local Conditions,170,Met One BAM-1020 Mass Monitor w/VSCC,44700.0,"Stockton-Lodi, CA",6,California,77,San Joaquin,37.9507408985318,-121.268522670981
09/18/2017,AQS,60710027,3,18.8,ug/m3 LC,69,Ontario-Route 60 Near Road,1,100.0,88101,PM2.5 - Local Conditions,183,Thermo Scientific 5014i or FH62C14-DHS w/VSCC,40140.0,"Riverside-San Bernardino-Ontario, CA",6,California,71,San Bernardino,34.030833,-117.61722
11/18/2017,AQS,60710005,3,14.0,ug/m3 LC,60,Crestline,1,100.0,88502,Acceptable PM2.5 AQI & Speciation Mass,731,Met-One BAM-1020 W/PM2.5 SCC,40140.0,"Riverside-San Bernardino-Ontario, CA",6,California,71,San Bernardino,34.2431,-117.27235
06/19/2017,AQS,60731011,3,4.9,ug/m3 LC,27,La Posta Reservation,1,100.0,88101,PM2.5 - Local Conditions,170,Met One BAM-1020 Mass Monitor w/VSCC,41740.0,"San Diego-Carlsbad, CA",6,California,73,San Diego,32.7252260005939,-116.365203426694
06/10/2017,AQS,60010012,3,4.6,ug/m3 LC,26,Laney College,1,100.0,88101,PM2.5 - Local Conditions,170,Met One BAM-1020 Mass Monitor w/VSCC,41860.0,"San Francisco-Oakland-Hayward, CA",6,California,1,Alameda,37.793624,-122.263376
04/15/2017,AQS,60371201,3,13.1,ug/m3 LC,58,Reseda,1,100.0,88502,Acceptable PM2.5 AQI & Speciation Mass,731,Met-One BAM-1020 W/PM2.5 SCC,31080.0,"Los Angeles-Long Beach-Anaheim, CA",6,California,37,Los Angeles,34.19925,-118.53276
01/02/2017,AQS,60792004,1,4.9,ug/m3 LC,27,Mesa2,1,100.0,88101,PM2.5 - Local Conditions,170,Met One BAM-1020 Mass Monitor w/VSCC,42020.0,"San Luis Obispo-Paso Robles-Arroyo Grande, CA",6,California,79,San Luis Obispo,35.02083,-120.56388
09/14/2017,AQS,60371201,3,15.2,ug/m3 LC,62,Reseda,1,100.0,88502,Acceptable PM2.5 AQI & Speciation Mass,731,Met-One BAM-1020 W/PM2.5 SCC,31080.0,"Los Angeles-Long Beach-Anaheim, CA",6,California,37,Los Angeles,34.19925,-118.53276
07/04/2017,AQS,60250005,3,23.2,ug/m3 LC,77,Calexico-Ethel Street,1,100.0,88502,Acceptable PM2.5 AQI & Speciation Mass,731,Met-One BAM-1020 W/PM2.5 SCC,20940.0,"El Centro, CA",6,California,25,Imperial,32.67618,-115.48307
10/25/2017,AQS,60195001,3,13.5,ug/m3 LC,59,Clovis-Villa,1,100.0,88101,PM2.5 - Local Conditions,204,Teledyne Model 602 Beta plus w/VSCC,23420.0,"Fresno, CA",6,California,19,Fresno,36.819449,-119.716433
08/13/2017,AQS,60659001,3,15.2,ug/m3 LC,62,Lake Elsinore,1,100.0,88502,Acceptable PM2.5 AQI & Speciation Mass,731,Met-One BAM-1020 W/PM2.5 SCC,40140.0,"Riverside-San Bernardino-Ontario, CA",6,California,65,Riverside,33.67649,-117.33098
04/12/2017,AQS,60871005,3,1.8,ug/m3 LC,10,San Lorenzo Valley Middle School,1,100.0,88101,PM2.5 - Local Conditions,170,Met One BAM-1020 Mass Monitor w/VSCC,42100.0,"Santa Cruz-Watsonville, CA",6,California,87,Santa Cruz,37.0631500009077,-122.083092
04/19/2017,AQS,60731008,1,3.8,ug/m3 LC,21,Camp Pendleton,1,100.0,88502,Acceptable PM2.5 AQI & Speciation Mass,733,Met-One BAM W/PM2.5 VSCC,41740.0,"San Diego-Carlsbad, CA",6,California,73,San Diego,33.217046,-117.396249
06/07/2017,AQS,60650012,3,23.2,ug/m3 LC,77,Banning Airport,1,100.0,88502,Acceptable PM2.5 AQI & Speciation Mass,731,Met-One BAM-1020 W/PM2.5 SCC,40140.0,"Riverside-San Bernardino-Ontario, CA",6,California,65,Riverside,33.92086,-116.85841
04/22/2017,AQS,60850002,3,3.0,ug/m3 LC,17,Gilroy,1,100.0,88101,PM2.5 - Local Conditions,170,Met One BAM-1020 Mass Monitor w/VSCC,41940.0,"San Jose-Sunnyvale-Santa Clara, CA",6,California,85,Santa Clara,36.999571,-121.574684
08/28/2017,AQS,60658005,3,17.7,ug/m3 LC,67,Mira Loma (Van Buren),1,100.0,88502,Acceptable PM2.5 AQI & Speciation Mass,170,Met-one BAM-1020 W/PM2.5 SCC,40140.0,"Riverside-San Bernardino-Ontario, CA",6,California,65,Riverside,33.996360000875,-117.4924
06/27/2017,AQS,60710005,3,7.7,ug/m3 LC,43,Crestline,1,100.0,88502,Acceptable PM2.5 AQI & Speciation Mass,731,Met-One BAM-1020 W/PM2.5 SCC,40140.0,"Riverside-San Bernardino-Ontario, CA",6,California,71,San Bernardino,34.2431,-117.27235
05/12/2017,AQS,60311004,3,4.7,ug/m3 LC,26,Hanford-Irwin,1,100.0,88101,PM2.5 - Local Conditions,170,Met One BAM-1020 Mass Monitor w/VSCC,25260.0,"Hanford-Corcoran, CA",6,California,31,Kings,36.31567,-119.643447
11/12/2017,AQS,60072002,3,11.7,ug/m3 LC,56,Paradise - Theater,1,100.0,88502,Acceptable PM2.5 AQI & Speciation Mass,171,Met-one BAM-1022 W/PM2.5 SCC,17020.0,"Chico, CA",6,California,7,Butte,39.77919,-121.59135
08/14/2017,AQS,60655001,1,8.0,ug/m3 LC,44,Palm Springs,1,100.0,88101,PM2.5 - Local Conditions,155,Thermo Electron Model RAAS2.5-300 Sequential w/VSCC,40140.0,"Riverside-San Bernardino-Ontario, CA",6,California,65,Riverside,33.85275,-116.54101
02/14/2017,AQS,60531003,3,4.7,ug/m3 LC,26,Salinas 3,1,100.0,88101,PM2.5 - Local Conditions,170,Met One BAM-1020 Mass Monitor w/VSCC,41500.0,"Salinas, CA",6,California,53,Monterey,36.6942610009043,-121.623271
07/30/2017,AQS,60670015,1,7.8,ug/m3 LC,43,Sacramento-Bercut Drive,1,100.0,88101,PM2.5 - Local Conditions,145,R & P Model 2025 PM-2.5 Sequential Air Sampler w/VSCC,40900.0,"Sacramento--Roseville--Arden-Arcade, CA",6,California,67,Sacramento,38.593322,-121.503795
04/18/2017,AQS,60010013,3,3.7,ug/m3 LC,21,Berkeley- Aquatic Park,1,100.0,88101,PM2.5 - Local Conditions,170,Met One BAM-1020 Mass Monitor w/VSCC,41860.0,"San Francisco-Oakland-Hayward, CA",6,California,1,Alameda,37.8647670009145,-122.302741
10/22/2017,AQS,60010007,3,3.6,ug/m3 LC,20,Livermore,1,100.0,88101,PM2.5 - Local Conditions,170,Met One BAM-1020 Mass Monitor w/VSCC,41860.0,"San Francisco-Oakland-Hayward, CA",6,California,1,Alameda,37.687526,-121.784217
07/29/2017,AQS,60530008,3,9.5,ug/m3 LC,52,King City 2,1,100.0,88101,PM2.5 - Local Conditions,170,Met One BAM-1020 Mass Monitor w/VSCC,41500.0,"Salinas, CA",6,California,53,Monterey,36.2092860008996,-121.126371
03/21/2017,AQS,60690002,3,1.0,ug/m3 LC,6,Hollister,1,100.0,88101,PM2.5 - Local Conditions,170,Met One BAM-1020 Mass Monitor w/VSCC,41940.0,"San Jose-Sunnyvale-Santa Clara, CA",6,California,69,San Benito,36.8434250009057,-121.3621
09/29/2017,AQS,60374004,3,12.1,ug/m3 LC,57,Long Beach (South),1,100.0,88101,PM2.5 - Local Conditions,170,Met One BAM-1020 Mass Monitor w/VSCC,31080.0,"Los Angeles-Long Beach-Anaheim, CA",6,California,37,Los Angeles,33.79236,-118.17533
01/16/2017,AQS,60195001,3,18.3,ug/m3 LC,68,Clovis-Villa,1,100.0,88101,PM2.5 - Local Conditions,204,Teledyne Model 602 Beta plus w/VSCC,23420.0,"Fresno, CA",6,California,19,Fresno,36.819449,-119.716433
11/07/2017,AQS,60792004,1,7.7,ug/m3 LC,43,Mesa2,1,100.0,88101,PM2.5 - Local Conditions,170,Met One BAM-1020 Mass Monitor w/VSCC,42020.0,"San Luis Obispo-Paso Robles-Arroyo Grande, CA",6,California,79,San Luis Obispo,35.02083,-120.56388
01/01/2017,AQS,60472510,1,12.7,ug/m3 LC,58,Merced-M St,1,100.0,88101,PM2.5 - Local Conditions,145,R & P Model 2025 PM-2.5 Sequential Air Sampler w/VSCC,32900.0,"Merced, CA",6,California,47,Merced,37.30832,-120.480456
12/05/2017,AQS,60270002,21,1.2,ug/m3 LC,7,White Mountain Research Center - Owens Valley Lab,1,100.0,88101,PM2.5 - Local Conditions,738,Teledyne T640X at 16.67 LPM (Corrected),13860.0,"Bishop, CA",6,California,27,Inyo,37.360684,-118.330783
08/13/2017,AQS,61111004,3,11.6,ug/m3 LC,56,Ojai - East Ojai Ave,1,100.0,88101,PM2.5 - Local Conditions,170,Met One BAM-1020 Mass Monitor w/VSCC,37100.0,"Oxnard-Thousand Oaks-Ventura, CA",6,California,111,Ventura,34.44806,-119.2313
06/24/2017,AQS,60719010,1,8.0,ug/m3 LC,44,,1,100.0,88502,Acceptable PM2.5 AQI & Speciation Mass,707,"IMPROVE Module A with Cyclone Inlet-Teflon Filter, 2.2 sq. cm.",40140.0,"Riverside-San Bernardino-Ontario, CA",6,California,71,San Bernardino,34.1939253249244,-116.914063106369
11/05/2017,AQS,60470003,3,7.3,ug/m3 LC,41,Merced-Coffee,1,100.0,88101,PM2.5 - Local Conditions,170,Met One BAM-1020 Mass Monitor w/VSCC,32900.0,"Merced, CA",6,California,47,Merced,37.281853,-120.433671
06/02/2017,AQS,60750005,3,7.2,ug/m3 LC,40,San Francisco,1,100.0,88101,PM2.5 - Local Conditions,170,Met One BAM-1020 Mass Monitor w/VSCC,41860.0,"San Francisco-Oakland-Hayward, CA",6,California,75,San Francisco,37.765946,-122.399044
01/16/2017,AQS,60376012,3,6.2,ug/m3 LC,34,Santa Clarita,1,100.0,88502,Acceptable PM2.5 AQI & Speciation Mass,731,Met-One BAM-1020 W/PM2.5 SCC,31080.0,"Los Angeles-Long Beach-Anaheim, CA",6,California,37,Los Angeles,34.38344,-118.5284
08/06/2017,AQS,60110007,1,-3.9,ug/m3 LC,0,Cortina Indian Rancheria,1,100.0,88101,PM2.5 - Local Conditions,170,Met One BAM-1020 Mass Monitor w/VSCC,,,6,California,11,Colusa,39.0212210009231,-122.281803
07/08/2017,AQS,61111004,3,12.0,ug/m3 LC,56,Ojai - East Ojai Ave,1,100.0,88101,PM2.5 - Local Conditions,170,Met One BAM-1020 Mass Monitor w/VSCC,37100.0,"Oxnard-Thousand Oaks-Ventura, CA",6,California,111,Ventura,34.44806,-119.2313
09/16/2017,AQS,60970004,3,12.5,ug/m3 LC,57,Sebastopol,1,100.0,88101,PM2.5 - Local Conditions,170,Met One BAM-1020 Mass Monitor w/VSCC,42220.0,"Santa Rosa, CA",6,California,97,Sonoma,38.403765,-122.818294
01/07/2017,AQS,60658001,1,8.2,ug/m3 LC,46,Rubidoux,1,100.0,88101,PM2.5 - Local Conditions,145,R & P Model 2025 PM-2.5 Sequential Air Sampler w/VSCC,40140.0,"Riverside-San Bernardino-Ontario, CA",6,California,65,Riverside,33.9995800008751,-117.41601
05/10/2017,AQS,60631010,1,8.0,ug/m3 LC,44,Portola,1,100.0,88101,PM2.5 - Local Conditions,145,R & P Model 2025 PM-2.5 Sequential Air Sampler w/VSCC,,,6,California,63,Plumas,39.81336,-120.47069
08/24/2017,AQS,60379033,1,9.3,ug/m3 LC,51,Lancaster-Division Street,1,100.0,88101,PM2.5 - Local Conditions,170,Met One BAM-1020 Mass Monitor w/VSCC,31080.0,"Los Angeles-Long Beach-Anaheim, CA",6,California,37,Los Angeles,34.6697390008831,-118.130511
08/09/2017,AQS,60610006,3,12.6,ug/m3 LC,58,Roseville-N Sunrise Ave,1,100.0,88502,Acceptable PM2.5 AQI & Speciation Mass,731,Met-One BAM-1020 W/PM2.5 SCC,40900.0,"Sacramento--Roseville--Arden-Arcade, CA",6,California,61,Placer,38.74643,-121.26498
01/31/2017,AQS,60792006,3,5.0,ug/m3 LC,28,San Luis Obispo,1,100.0,88101,PM2.5 - Local Conditions,170,Met One BAM-1020 Mass Monitor w/VSCC,42020.0,"San Luis Obispo-Paso Robles-Arroyo Grande, CA",6,California,79,San Luis Obispo,35.25651,-120.6693
04/03/2017,AQS,60670010,3,3.0,ug/m3 LC,17,Sacramento-1309 T Street,1,100.0,88502,Acceptable PM2.5 AQI & Speciation Mass,731,Met-One BAM-1020 W/PM2.5 SCC,40900.0,"Sacramento--Roseville--Arden-Arcade, CA",6,California,67,Sacramento,38.56844,-121.49311
01/16/2017,AQS,60990006,3,20.8,ug/m3 LC,73,Turlock,1,100.0,88101,PM2.5 - Local Conditions,170,Met One BAM-1020 Mass Monitor w/VSCC,33700.0,"Modesto, CA",6,California,99,Stanislaus,37.488317,-120.836008
12/20/2017,AQS,60675003,3,1.6,ug/m3 LC,9,Sloughhouse,1,100.0,88101,PM2.5 - Local Conditions,170,Met One BAM-1020 Mass Monitor w/VSCC,40900.0,"Sacramento--Roseville--Arden-Arcade, CA",6,California,67,Sacramento,38.494475,-121.211131
11/18/2017,AQS,60670012,4,11.1,ug/m3 LC,55,Folsom-Natoma St.,1,100.0,88101,PM2.5 - Local Conditions,170,Met One BAM-1020 Mass Monitor w/VSCC,40900.0,"Sacramento--Roseville--Arden-Arcade, CA",6,California,67,Sacramento,38.683304,-121.164457
06/08/2017,AQS,60371201,3,14.7,ug/m3 LC,61,Reseda,1,100.0,88502,Acceptable PM2.5 AQI & Speciation Mass,731,Met-One BAM-1020 W/PM2.5 SCC,31080.0,"Los Angeles-Long Beach-Anaheim, CA",6,California,37,Los Angeles,34.19925,-118.53276
04/27/2017,AQS,60710005,3,7.6,ug/m3 LC,42,Crestline,1,100.0,88502,Acceptable PM2.5 AQI & Speciation Mass,731,Met-One BAM-1020 W/PM2.5 SCC,40140.0,"Riverside-San Bernardino-Ontario, CA",6,California,71,San Bernardino,34.2431,-117.27235
08/27/2017,AQS,60650009,1,6.7,ug/m3 LC,37,Pechanga,1,100.0,88101,PM2.5 - Local Conditions,170,Met One BAM-1020 Mass Monitor w/VSCC,40140.0,"Riverside-San Bernardino-Ontario, CA",6,California,65,Riverside,33.4478670008682,-117.088649
12/29/2017,AQS,61110007,3,8.0,ug/m3 LC,44,Thousand Oaks,1,100.0,88101,PM2.5 - Local Conditions,170,Met One BAM-1020 Mass Monitor w/VSCC,37100.0,"Oxnard-Thousand Oaks-Ventura, CA",6,California,111,Ventura,34.210169,-118.870509
02/06/2017,AQS,60712002,1,7.5,ug/m3 LC,42,Fontana,1,100.0,88101,PM2.5 - Local Conditions,143,R & P Model 2000 PM-2.5 Air Sampler w/VSCC,40140.0,"Riverside-San Bernardino-Ontario, CA",6,California,71,San Bernardino,34.10002,-117.49201
03/01/2017,AQS,60530008,3,2.3,ug/m3 LC,13,King City 2,1,100.0,88101,PM2.5 - Local Conditions,170,Met One BAM-1020 Mass Monitor w/VSCC,41500.0,"Salinas, CA",6,California,53,Monterey,36.2092860008996,-121.126371
11/23/2017,AQS,60871005,3,4.3,ug/m3 LC,24,San Lorenzo Valley Middle School,1,100.0,88101,PM2.5 - Local Conditions,170,Met One BAM-1020 Mass Monitor w/VSCC,42100.0,"Santa Cruz-Watsonville, CA",6,California,87,Santa Cruz,37.0631500009077,-122.083092
02/03/2017,AQS,61112002,3,8.6,ug/m3 LC,48,Simi Valley-Cochran Street,1,100.0,88101,PM2.5 - Local Conditions,170,Met One BAM-1020 Mass Monitor w/VSCC,37100.0,"Oxnard-Thousand Oaks-Ventura, CA",6,California,111,Ventura,34.276316,-118.683685
06/03/2017,AQS,60990005,3,4.1,ug/m3 LC,23,Modesto-14th Street,1,100.0,88101,PM2.5 - Local Conditions,170,Met One BAM-1020 Mass Monitor w/VSCC,33700.0,"Modesto, CA",6,California,99,Stanislaus,37.642165,-120.994212
09/16/2017,AQS,60990006,3,16.7,ug/m3 LC,65,Turlock,1,100.0,88101,PM2.5 - Local Conditions,170,Met One BAM-1020 Mass Monitor w/VSCC,33700.0,"Modesto, CA",6,California,99,Stanislaus,37.488317,-120.836008
02/04/2017,AQS,60371103,1,8.5,ug/m3 LC,47,Los Angeles-North Main Street,1,100.0,88101,PM2.5 - Local Conditions,145,R & P Model 2025 PM-2.5 Sequential Air Sampler w/VSCC,31080.0,"Los Angeles-Long Beach-Anaheim, CA",6,California,37,Los Angeles,34.0665900008759,-118.22688
12/18/2017,AQS,60010009,3,17.3,ug/m3 LC,66,Oakland,1,100.0,88101,PM2.5 - Local Conditions,170,Met One BAM-1020 Mass Monitor w/VSCC,41860.0,"San Francisco-Oakland-Hayward, CA",6,California,1,Alameda,37.743065,-122.169935
08/05/2017,AQS,60731201,1,4.5,ug/m3 LC,25,Pala Airpad,1,100.0,88101,PM2.5 - Local Conditions,236,Teledyne T640 at 5.0 LPM,41740.0,"San Diego-Carlsbad, CA",6,California,73,San Diego,33.3625928342781,-117.090229999878
09/07/2017,AQS,60730001,1,13.4,ug/m3 LC,59,Chula Vista,1,100.0,88101,PM2.5 - Local Conditions,145,R & P Model 2025 PM-2.5 Sequential Air Sampler w/VSCC,41740.0,"San Diego-Carlsbad, CA",6,California,73,San Diego,32.6312420008573,-117.059088
04/20/2017,AQS,60710306,1,8.9,ug/m3 LC,49,Victorville-Park Avenue,1,100.0,88101,PM2.5 - Local Conditions,170,Met One BAM-1020 Mass Monitor w/VSCC,40140.0,"Riverside-San Bernardino-Ontario, CA",6,California,71,San Bernardino,34.5109611108812,-117.32554
09/28/2017,AQS,60718001,1,5.2,ug/m3 LC,29,Big Bear,1,100.0,88101,PM2.5 - Local Conditions,143,R & P Model 2000 PM-2.5 Air Sampler w/VSCC,40140.0,"Riverside-San Bernardino-Ontario, CA",6,California,71,San Bernardino,34.2646400008783,-116.86147
05/09/2017,AQS,60190500,1,11.7,ug/m3 LC,56,Table Mountain Air Monitoring Site,1,100.0,88101,PM2.5 - Local Conditions,170,Met One BAM-1020 Mass Monitor w/VSCC,23420.0,"Fresno, CA",6,California,19,Fresno,36.9851185574381,-119.658339349936
09/27/2017,AQS,60690002,3,3.3,ug/m3 LC,18,Hollister,1,100.0,88101,PM2.5 - Local Conditions,170,Met One BAM-1020 Mass Monitor w/VSCC,41940.0,"San Jose-Sunnyvale-Santa Clara, CA",6,California,69,San Benito,36.8434250009057,-121.3621
11/21/2017,AQS,60290018,1,9.3,ug/m3 LC,51,Ridgecrest-Ward,1,100.0,88101,PM2.5 - Local Conditions,170,Met One BAM-1020 Mass Monitor w/VSCC,12540.0,"Bakersfield, CA",6,California,29,Kern,35.6429431008838,-117.715066487047
08/20/2017,AQS,60299001,1,12.0,ug/m3 LC,56,Lebec-Peace Valley/Frazier Park Roads,1,100.0,88502,Acceptable PM2.5 AQI & Speciation Mass,707,"IMPROVE Module A with Cyclone Inlet-Teflon Filter, 2.2 sq. cm.",12540.0,"Bakersfield, CA",6,California,29,Kern,34.821921799,-118.88759767
06/24/2017,AQS,60670010,5,4.0,ug/m3 LC,22,Sacramento-1309 T Street,1,100.0,88502,Acceptable PM2.5 AQI & Speciation Mass,810,Met One SASS/SuperSASS Teflon,40900.0,"Sacramento--Roseville--Arden-Arcade, CA",6,California,67,Sacramento,38.56844,-121.49311
07/19/2017,AQS,60010007,3,8.4,ug/m3 LC,47,Livermore,1,100.0,88101,PM2.5 - Local Conditions,170,Met One BAM-1020 Mass Monitor w/VSCC,41860.0,"San Francisco-Oakland-Hayward, CA",6,California,1,Alameda,37.687526,-121.784217
10/08/2017,AQS,60070008,3,7.6,ug/m3 LC,42,Chico-East Avenue,1,100.0,88502,Acceptable PM2.5 AQI & Speciation Mass,731,Met-One BAM-1020 W/PM2.5 SCC,17020.0,"Chico, CA",6,California,7,Butte,39.76168,-121.84047
12/14/2017,AQS,60131004,3,23.0,ug/m3 LC,77,San Pablo,1,100.0,88101,PM2.5 - Local Conditions,170,Met One BAM-1020 Mass Monitor w/VSCC,41860.0,"San Francisco-Oakland-Hayward, CA",6,California,13,Contra Costa,37.9604,-122.356811
06/11/2017,AQS,60651016,1,7.5,ug/m3 LC,42,Morongo Air Monitoring Station,1,100.0,88101,PM2.5 - Local Conditions,170,Met One BAM-1020 Mass Monitor w/VSCC,40140.0,"Riverside-San Bernardino-Ontario, CA",6,California,65,Riverside,33.9447129,-116.830074
01/10/2017,AQS,61112002,3,3.8,ug/m3 LC,21,Simi Valley-Cochran Street,1,100.0,88101,PM2.5 - Local Conditions,170,Met One BAM-1020 Mass Monitor w/VSCC,37100.0,"Oxnard-Thousand Oaks-Ventura, CA",6,California,111,Ventura,34.276316,-118.683685
07/02/2017,AQS,60631006,1,7.5,ug/m3 LC,42,Quincy-N Church Street,1,100.0,88101,PM2.5 - Local Conditions,145,R & P Model 2025 PM-2.5 Sequential Air Sampler w/VSCC,,,6,California,63,Plumas,39.9395670009288,-120.944376
03/09/2017,AQS,60731008,1,11.5,ug/m3 LC,55,Camp Pendleton,1,100.0,88502,Acceptable PM2.5 AQI & Speciation Mass,733,Met-One BAM W/PM2.5 VSCC,41740.0,"San Diego-Carlsbad, CA",6,California,73,San Diego,33.217046,-117.396249
10/16/2017,AQS,60190011,4,21.3,ug/m3 LC,74,Fresno - Garland,1,100.0,88101,PM2.5 - Local Conditions,170,Met One BAM-1020 Mass Monitor w/VSCC,23420.0,"Fresno, CA",6,California,19,Fresno,36.78538,-119.77321
04/30/2017,AQS,60690002,3,4.5,ug/m3 LC,25,Hollister,1,100.0,88101,PM2.5 - Local Conditions,170,Met One BAM-1020 Mass Monitor w/VSCC,41940.0,"San Jose-Sunnyvale-Santa Clara, CA",6,California,69,San Benito,36.8434250009057,-121.3621
09/12/2017,AQS,60658005,3,17.3,ug/m3 LC,66,Mira Loma (Van Buren),1,100.0,88502,Acceptable PM2.5 AQI & Speciation Mass,170,Met-one BAM-1020 W/PM2.5 SCC,40140.0,"Riverside-San Bernardino-Ontario, CA",6,California,65,Riverside,33.996360000875,-117.4924
11/15/2017,AQS,60010007,3,2.2,ug/m3 LC,12,Livermore,1,100.0,88101,PM2.5 - Local Conditions,170,Met One BAM-1020 Mass Monitor w/VSCC,41860.0,"San Francisco-Oakland-Hayward, CA",6,California,1,Alameda,37.687526,-121.784217
10/24/2017,AQS,60710005,3,4.7,ug/m3 LC,26,Crestline,1,100.0,88502,Acceptable PM2.5 AQI & Speciation Mass,731,Met-One BAM-1020 W/PM2.5 SCC,40140.0,"Riverside-San Bernardino-Ontario, CA",6,California,71,San Bernardino,34.2431,-117.27235
01/13/2017,AQS,60731022,1,4.7,ug/m3 LC,26,El Cajon - Lexington Elementary School,1,100.0,88101,PM2.5 - Local Conditions,145,R & P Model 2025 PM-2.5 Sequential Air Sampler w/VSCC,41740.0,"San Diego-Carlsbad, CA",6,California,73,San Diego,32.7895650008594,-116.944308
09/07/2017,AQS,60374004,3,19.6,ug/m3 LC,71,Long Beach (South),1,100.0,88101,PM2.5 - Local Conditions,170,Met One BAM-1020 Mass Monitor w/VSCC,31080.0,"Los Angeles-Long Beach-Anaheim, CA",6,California,37,Los Angeles,33.79236,-118.17533
11/24/2017,AQS,60675003,3,4.0,ug/m3 LC,22,Sloughhouse,1,100.0,88101,PM2.5 - Local Conditions,170,Met One BAM-1020 Mass Monitor w/VSCC,40900.0,"Sacramento--Roseville--Arden-Arcade, CA",6,California,67,Sacramento,38.494475,-121.211131
11/07/2017,AQS,61030007,3,3.9,ug/m3 LC,22,Red Bluff-Walnut St. District Office,1,100.0,88101,PM2.5 - Local Conditions,170,Met One BAM-1020 Mass Monitor w/VSCC,39780.0,"Red Bluff, CA",6,California,103,Tehama,40.17093,-122.25556
05/21/2017,AQS,60195001,3,8.2,ug/m3 LC,46,Clovis-Villa,1,100.0,88101,PM2.5 - Local Conditions,204,Teledyne Model 602 Beta plus w/VSCC,23420.0,"Fresno, CA",6,California,19,Fresno,36.819449,-119.716433
05/19/2017,AQS,60392010,3,5.6,ug/m3 LC,31,Madera-City,1,100.0,88101,PM2.5 - Local Conditions,170,Met One BAM-1020 Mass Monitor w/VSCC,31460.0,"Madera, CA",6,California,39,Madera,36.953256,-120.034203
09/25/2017,AQS,60610003,1,3.9,ug/m3 LC,22,Auburn-Atwood,1,100.0,88101,PM2.5 - Local Conditions,170,Met One BAM-1020 Mass Monitor w/VSCC,40900.0,"Sacramento--Roseville--Arden-Arcade, CA",6,California,61,Placer,38.93568,-121.09959
12/22/2017,AQS,60670010,3,26.4,ug/m3 LC,83,Sacramento-1309 T Street,1,100.0,88502,Acceptable PM2.5 AQI & Speciation Mass,731,Met-One BAM-1020 W/PM2.5 SCC,40900.0,"Sacramento--Roseville--Arden-Arcade, CA",6,California,67,Sacramento,38.56844,-121.49311
10/25/2017,AQS,60379033,1,6.9,ug/m3 LC,38,Lancaster-Division Street,1,100.0,88101,PM2.5 - Local Conditions,170,Met One BAM-1020 Mass Monitor w/VSCC,31080.0,"Los Angeles-Long Beach-Anaheim, CA",6,California,37,Los Angeles,34.6697390008831,-118.130511
09/16/2017,AQS,60670015,1,14.3,ug/m3 LC,61,Sacramento-Bercut Drive,1,100.0,88101,PM2.5 - Local Conditions,145,R & P Model 2025 PM-2.5 Sequential Air Sampler w/VSCC,40900.0,"Sacramento--Roseville--Arden-Arcade, CA",6,California,67,Sacramento,38.593322,-121.503795
05/05/2017,AQS,60670006,1,4.2,ug/m3 LC,23,Sacramento-Del Paso Manor,1,100.0,88101,PM2.5 - Local Conditions,145,R & P Model 2025 PM-2.5 Sequential Air Sampler w/VSCC,40900.0,"Sacramento--Roseville--Arden-Arcade, CA",6,California,67,Sacramento,38.6137790009202,-121.368014
09/28/2017,AQS,60371103,12,15.2,ug/m3 LC,62,Los Angeles-North Main Street,1,100.0,88502,Acceptable PM2.5 AQI & Speciation Mass,810,Met One SASS/SuperSASS Teflon,31080.0,"Los Angeles-Long Beach-Anaheim, CA",6,California,37,Los Angeles,34.0665900008759,-118.22688
02/18/2017,AQS,60010012,3,4.3,ug/m3 LC,24,Laney College,1,100.0,88101,PM2.5 - Local Conditions,170,Met One BAM-1020 Mass Monitor w/VSCC,41860.0,"San Francisco-Oakland-Hayward, CA",6,California,1,Alameda,37.793624,-122.263376
07/03/2017,AQS,60610003,1,6.6,ug/m3 LC,37,Auburn-Atwood,1,100.0,88101,PM2.5 - Local Conditions,170,Met One BAM-1020 Mass Monitor w/VSCC,40900.0,"Sacramento--Roseville--Arden-Arcade, CA",6,California,61,Placer,38.93568,-121.09959
03/24/2017,AQS,60310004,8,10.4,ug/m3 LC,53,Corcoran-Patterson,1,100.0,88101,PM2.5 - Local Conditions,204,Teledyne Model 602 Beta plus w/VSCC,25260.0,"Hanford-Corcoran, CA",6,California,31,Kings,36.102244,-119.56565
08/22/2017,AQS,60831008,3,9.5,ug/m3 LC,52,Santa Maria,1,100.0,88101,PM2.5 - Local Conditions,170,Met One BAM-1020 Mass Monitor w/VSCC,42200.0,"Santa Maria-Santa Barbara, CA",6,California,83,Santa Barbara,34.942872,-120.435611
06/06/2017,AQS,60431001,3,5.3,ug/m3 LC,29,Yosemite NP-Yosemite Village Vistor Center,1,100.0,88502,Acceptable PM2.5 AQI & Speciation Mass,731,Met-One BAM-1020 W/PM2.5 SCC,,,6,California,43,Mariposa,37.748707,-119.587094
09/25/2017,AQS,60631006,1,5.9,ug/m3 LC,33,Quincy-N Church Street,1,100.0,88101,PM2.5 - Local Conditions,145,R & P Model 2025 PM-2.5 Sequential Air Sampler w/VSCC,,,6,California,63,Plumas,39.9395670009288,-120.944376
08/13/2017,AQS,60772010,3,6.5,ug/m3 LC,36,Manteca,1,100.0,88101,PM2.5 - Local Conditions,170,Met One BAM-1020 Mass Monitor w/VSCC,44700.0,"Stockton-Lodi, CA",6,California,77,San Joaquin,37.793392,-121.247874
06/04/2017,AQS,60192009,3,3.7,ug/m3 LC,21,Tranquillity,1,100.0,88101,PM2.5 - Local Conditions,170,Met One BAM-1020 Mass Monitor w/VSCC,23420.0,"Fresno, CA",6,California,19,Fresno,36.6342250009037,-120.382331
06/15/2017,AQS,60658001,1,15.9,ug/m3 LC,64,Rubidoux,1,100.0,88101,PM2.5 - Local Conditions,145,R & P Model 2025 PM-2.5 Sequential Air Sampler w/VSCC,40140.0,"Riverside-San Bernardino-Ontario, CA",6,California,65,Riverside,33.9995800008751,-117.41601
07/25/2017,AQS,60452002,3,7.6,ug/m3 LC,42,Willits-125 East Commercial Street,1,100.0,88101,PM2.5 - Local Conditions,170,Met One BAM-1020 Mass Monitor w/VSCC,46380.0,"Ukiah, CA",6,California,45,Mendocino,39.41174,-123.35264
05/11/2017,AQS,60731008,1,10.1,ug/m3 LC,53,Camp Pendleton,1,100.0,88502,Acceptable PM2.5 AQI & Speciation Mass,733,Met-One BAM W/PM2.5 VSCC,41740.0,"San Diego-Carlsbad, CA",6,California,73,San Diego,33.217046,-117.396249
10/14/2017,AQS,61072010,3,28.8,ug/m3 LC,88,Porterville,1,100.0,88502,Acceptable PM2.5 AQI & Speciation Mass,731,Met-One BAM-1020 W/PM2.5 SCC,47300.0,"Visalia-Porterville, CA",6,California,107,Tulare,36.0318310008979,-119.055018
12/15/2017,AQS,61072002,3,63.2,ug/m3 LC,156,Visalia-Church,1,100.0,88502,Acceptable PM2.5 AQI & Speciation Mass,731,Met-One BAM-1020 W/PM2.5 SCC,47300.0,"Visalia-Porterville, CA",6,California,107,Tulare,36.3321793109462,-119.291227556039
11/22/2017,AQS,60530008,3,4.4,ug/m3 LC,24,King City 2,1,100.0,88101,PM2.5 - Local Conditions,170,Met One BAM-1020 Mass Monitor w/VSCC,41500.0,"Salinas, CA",6,California,53,Monterey,36.2092860008996,-121.126371
05/09/2017,AQS,60710005,3,12.4,ug/m3 LC,57,Crestline,1,100.0,88502,Acceptable PM2.5 AQI & Speciation Mass,731,Met-One BAM-1020 W/PM2.5 SCC,40140.0,"Riverside-San Bernardino-Ontario, CA",6,California,71,San Bernardino,34.2431,-117.27235
07/05/2017,AQS,60970004,3,2.4,ug/m3 LC,13,Sebastopol,1,100.0,88101,PM2.5 - Local Conditions,170,Met One BAM-1020 Mass Monitor w/VSCC,42220.0,"Santa Rosa, CA",6,California,97,Sonoma,38.403765,-122.818294
04/12/2017,AQS,60750005,3,-0.7,ug/m3 LC,0,San Francisco,1,100.0,88101,PM2.5 - Local Conditions,170,Met One BAM-1020 Mass Monitor w/VSCC,41860.0,"San Francisco-Oakland-Hayward, CA",6,California,75,San Francisco,37.765946,-122.399044
08/07/2017,AQS,60711004,3,22.8,ug/m3 LC,77,Upland,1,100.0,88502,Acceptable PM2.5 AQI & Speciation Mass,731,Met-One BAM-1020 W/PM2.5 SCC,40140.0,"Riverside-San Bernardino-Ontario, CA",6,California,71,San Bernardino,34.10374,-117.62914
11/25/2017,AQS,60190011,4,33.0,ug/m3 LC,96,Fresno - Garland,1,100.0,88101,PM2.5 - Local Conditions,170,Met One BAM-1020 Mass Monitor w/VSCC,23420.0,"Fresno, CA",6,California,19,Fresno,36.78538,-119.77321
07/01/2017,AQS,60811001,3,6.3,ug/m3 LC,35,Redwood City,1,100.0,88101,PM2.5 - Local Conditions,170,Met One BAM-1020 Mass Monitor w/VSCC,41860.0,"San Francisco-Oakland-Hayward, CA",6,California,81,San Mateo,37.482934,-122.20337
11/29/2017,AQS,60431001,3,7.3,ug/m3 LC,41,Yosemite NP-Yosemite Village Vistor Center,1,100.0,88502,Acceptable PM2.5 AQI & Speciation Mass,731,Met-One BAM-1020 W/PM2.5 SCC,,,6,California,43,Mariposa,37.748707,-119.587094
02/20/2017,AQS,60450006,3,3.1,ug/m3 LC,17,Ukiah-Library,1,100.0,88101,PM2.5 - Local Conditions,170,Met One BAM-1020 Mass Monitor w/VSCC,46380.0,"Ukiah, CA",6,California,45,Mendocino,39.15047,-123.20655
03/22/2017,AQS,60731201,1,1.6,ug/m3 LC,9,Pala Airpad,1,100.0,88101,PM2.5 - Local Conditions,236,Teledyne T640 at 5.0 LPM,41740.0,"San Diego-Carlsbad, CA",6,California,73,San Diego,33.3625928342781,-117.090229999878
02/11/2017,AQS,60792004,1,1.3,ug/m3 LC,7,Mesa2,1,100.0,88101,PM2.5 - Local Conditions,170,Met One BAM-1020 Mass Monitor w/VSCC,42020.0,"San Luis Obispo-Paso Robles-Arroyo Grande, CA",6,California,79,San Luis Obispo,35.02083,-120.56388
07/05/2017,AQS,60210003,3,3.9,ug/m3 LC,22,Willows-Colusa Street,1,100.0,88502,Acceptable PM2.5 AQI & Speciation Mass,731,Met-One BAM-1020 W/PM2.5 SCC,,,6,California,21,Glenn,39.53387,-122.190834
12/05/2017,AQS,60832004,1,8.4,ug/m3 LC,47,Lompoc H Street,1,100.0,88101,PM2.5 - Local Conditions,170,Met One BAM-1020 Mass Monitor w/VSCC,42200.0,"Santa Maria-Santa Barbara, CA",6,California,83,Santa Barbara,34.6378200008827,-120.4575
03/03/2017,AQS,60651016,1,3.4,ug/m3 LC,19,Morongo Air Monitoring Station,1,100.0,88101,PM2.5 - Local Conditions,170,Met One BAM-1020 Mass Monitor w/VSCC,40140.0,"Riverside-San Bernardino-Ontario, CA",6,California,65,Riverside,33.9447129,-116.830074
09/19/2017,AQS,61072002,3,8.1,ug/m3 LC,45,Visalia-Church,1,100.0,88502,Acceptable PM2.5 AQI & Speciation Mass,731,Met-One BAM-1020 W/PM2.5 SCC,47300.0,"Visalia-Porterville, CA",6,California,107,Tulare,36.3321793109462,-119.291227556039
04/19/2017,AQS,61030007,3,3.3,ug/m3 LC,18,Red Bluff-Walnut St. District Office,1,100.0,88101,PM2.5 - Local Conditions,170,Met One BAM-1020 Mass Monitor w/VSCC,39780.0,"Red Bluff, CA",6,California,103,Tehama,40.17093,-122.25556
06/06/2017,AQS,60670006,3,16.1,ug/m3 LC,64,Sacramento-Del Paso Manor,1,100.0,88502,Acceptable PM2.5 AQI & Speciation Mass,731,Met-One BAM-1020 W/PM2.5 SCC,40900.0,"Sacramento--Roseville--Arden-Arcade, CA",6,California,67,Sacramento,38.6137790009202,-121.368014
05/19/2017,AQS,60010011,3,17.3,ug/m3 LC,66,Oakland West,1,100.0,88101,PM2.5 - Local Conditions,170,Met One BAM-1020 Mass Monitor w/VSCC,41860.0,"San Francisco-Oakland-Hayward, CA",6,California,1,Alameda,37.814781,-122.282347
11/19/2017,AQS,60731014,1,15.6,ug/m3 LC,63,Donovan,1,100.0,88502,Acceptable PM2.5 AQI & Speciation Mass,733,Met-One BAM W/PM2.5 VSCC,41740.0,"San Diego-Carlsbad, CA",6,California,73,San Diego,32.578165,-116.921374
10/11/2017,AQS,60731014,1,19.0,ug/m3 LC,69,Donovan,1,100.0,88502,Acceptable PM2.5 AQI & Speciation Mass,733,Met-One BAM W/PM2.5 VSCC,41740.0,"San Diego-Carlsbad, CA",6,California,73,San Diego,32.578165,-116.921374
07/13/2017,AQS,60452002,3,7.8,ug/m3 LC,43,Willits-125 East Commercial Street,1,100.0,88101,PM2.5 - Local Conditions,170,Met One BAM-1020 Mass Monitor w/VSCC,46380.0,"Ukiah, CA",6,California,45,Mendocino,39.41174,-123.35264
10/11/2017,AQS,60651016,1,9.1,ug/m3 LC,51,Morongo Air Monitoring Station,1,100.0,88101,PM2.5 - Local Conditions,170,Met One BAM-1020 Mass Monitor w/VSCC,40140.0,"Riverside-San Bernardino-Ontario, CA",6,California,65,Riverside,33.9447129,-116.830074
12/19/2017,AQS,60374008,1,19.9,ug/m3 LC,71,Long Beach-Route 710 Near Road,1,100.0,88101,PM2.5 - Local Conditions,145,R & P Model 2025 PM-2.5 Sequential Air Sampler w/VSCC,31080.0,"Los Angeles-Long Beach-Anaheim, CA",6,California,37,Los Angeles,33.8596620008734,-118.200707
09/03/2017,AQS,60231005,1,97.2,ug/m3 LC,180,Humboldt Hill,1,100.0,88502,Acceptable PM2.5 AQI & Speciation Mass,195,GRIMM EDM Model 180 with naphion dryer,21700.0,"Eureka-Arcata-Fortuna, CA",6,California,23,Humboldt,40.71528,-124.20139
10/12/2017,AQS,61010003,3,7.9,ug/m3 LC,44,Yuba City,1,100.0,88502,Acceptable PM2.5 AQI & Speciation Mass,731,Met-One BAM-1020 W/PM2.5 SCC,49700.0,"Yuba City, CA",6,California,101,Sutter,39.1387725442464,-121.618548986224
06/27/2017,AQS,60192009,3,3.4,ug/m3 LC,19,Tranquillity,1,100.0,88101,PM2.5 - Local Conditions,170,Met One BAM-1020 Mass Monitor w/VSCC,23420.0,"Fresno, CA",6,California,19,Fresno,36.6342250009037,-120.382331
11/27/2017,AQS,60650016,3,12.0,ug/m3 LC,56,Temecula,1,100.0,88502,Acceptable PM2.5 AQI & Speciation Mass,731,Met-One BAM-1020 W/PM2.5 SCC,40140.0,"Riverside-San Bernardino-Ontario, CA",6,California,65,Riverside,33.5830180008699,-117.072202
06/10/2017,AQS,60379033,1,8.1,ug/m3 LC,45,Lancaster-Division Street,1,100.0,88101,PM2.5 - Local Conditions,170,Met One BAM-1020 Mass Monitor w/VSCC,31080.0,"Los Angeles-Long Beach-Anaheim, CA",6,California,37,Los Angeles,34.6697390008831,-118.130511
02/12/2017,AQS,60712002,11,5.8,ug/m3 LC,32,Fontana,1,100.0,88502,Acceptable PM2.5 AQI & Speciation Mass,810,Met One SASS/SuperSASS Teflon,40140.0,"Riverside-San Bernardino-Ontario, CA",6,California,71,San Bernardino,34.10002,-117.49201
02/27/2017,AQS,60550003,3,9.0,ug/m3 LC,50,Napa,1,100.0,88101,PM2.5 - Local Conditions,170,Met One BAM-1020 Mass Monitor w/VSCC,34900.0,"Napa, CA",6,California,55,Napa,38.310942,-122.296189
08/05/2017,AQS,60571001,1,12.4,ug/m3 LC,57,Truckee-Fire Station,1,100.0,88101,PM2.5 - Local Conditions,145,R & P Model 2025 PM-2.5 Sequential Air Sampler w/VSCC,46020.0,"Truckee-Grass Valley, CA",6,California,57,Nevada,39.3278300009251,-120.184592
06/22/2017,AQS,60710005,3,10.6,ug/m3 LC,54,Crestline,1,100.0,88502,Acceptable PM2.5 AQI & Speciation Mass,731,Met-One BAM-1020 W/PM2.5 SCC,40140.0,"Riverside-San Bernardino-Ontario, CA",6,California,71,San Bernardino,34.2431,-117.27235
11/23/2017,AQS,60470003,3,34.0,ug/m3 LC,97,Merced-Coffee,1,100.0,88101,PM2.5 - Local Conditions,170,Met One BAM-1020 Mass Monitor w/VSCC,32900.0,"Merced, CA",6,California,47,Merced,37.281853,-120.433671
09/10/2017,AQS,60430003,2,45.9,ug/m3 LC,127,Yosemite NP - Turtleback Dome,1,100.0,88502,Acceptable PM2.5 AQI & Speciation Mass,707,"IMPROVE Module A with Cyclone Inlet-Teflon Filter, 2.2 sq. cm.",,,6,California,43,Mariposa,37.71325,-119.7062
08/25/2017,AQS,61072002,3,13.2,ug/m3 LC,59,Visalia-Church,1,100.0,88502,Acceptable PM2.5 AQI & Speciation Mass,731,Met-One BAM-1020 W/PM2.5 SCC,47300.0,"Visalia-Porterville, CA",6,California,107,Tulare,36.3321793109462,-119.291227556039
05/23/2017,AQS,60771002,4,0.6,ug/m3 LC,3,Stockton-Hazelton,1,100.0,88101,PM2.5 - Local Conditions,170,Met One BAM-1020 Mass Monitor w/VSCC,44700.0,"Stockton-Lodi, CA",6,California,77,San Joaquin,37.9507408985318,-121.268522670981
11/24/2017,AQS,60452002,3,6.3,ug/m3 LC,35,Willits-125 East Commercial Street,1,100.0,88101,PM2.5 - Local Conditions,170,Met One BAM-1020 Mass Monitor w/VSCC,46380.0,"Ukiah, CA",6,California,45,Mendocino,39.41174,-123.35264
02/05/2017,AQS,60631006,1,6.1,ug/m3 LC,34,Quincy-N Church Street,1,100.0,88101,PM2.5 - Local Conditions,145,R & P Model 2025 PM-2.5 Sequential Air Sampler w/VSCC,,,6,California,63,Plumas,39.9395670009288,-120.944376
03/08/2017,AQS,61130004,3,3.8,ug/m3 LC,21,Davis-UCD Campus,1,100.0,88502,Acceptable PM2.5 AQI & Speciation Mass,731,Met-One BAM-1020 W/PM2.5 SCC,40900.0,"Sacramento--Roseville--Arden-Arcade, CA",6,California,113,Yolo,38.53445,-121.7734
01/18/2017,AQS,60970004,3,16.0,ug/m3 LC,64,Sebastopol,1,100.0,88101,PM2.5 - Local Conditions,170,Met One BAM-1020 Mass Monitor w/VSCC,42220.0,"Santa Rosa, CA",6,California,97,Sonoma,38.403765,-122.818294
02/18/2017,AQS,60130002,3,6.9,ug/m3 LC,38,Concord,1,100.0,88101,PM2.5 - Local Conditions,170,Met One BAM-1020 Mass Monitor w/VSCC,41860.0,"San Francisco-Oakland-Hayward, CA",6,California,13,Contra Costa,37.936013,-122.026154
07/13/2017,AQS,60792004,1,7.5,ug/m3 LC,42,Mesa2,1,100.0,88101,PM2.5 - Local Conditions,170,Met One BAM-1020 Mass Monitor w/VSCC,42020.0,"San Luis Obispo-Paso Robles-Arroyo Grande, CA",6,California,79,San Luis Obispo,35.02083,-120.56388
06/07/2017,AQS,60010013,3,6.0,ug/m3 LC,33,Berkeley- Aquatic Park,1,100.0,88101,PM2.5 - Local Conditions,170,Met One BAM-1020 Mass Monitor w/VSCC,41860.0,"San Francisco-Oakland-Hayward, CA",6,California,1,Alameda,37.8647670009145,-122.302741
01/14/2017,AQS,60070008,3,23.8,ug/m3 LC,78,Chico-East Avenue,1,100.0,88502,Acceptable PM2.5 AQI & Speciation Mass,731,Met-One BAM-1020 W/PM2.5 SCC,17020.0,"Chico, CA",6,California,7,Butte,39.76168,-121.84047
11/28/2017,AQS,60710306,1,10.2,ug/m3 LC,53,Victorville-Park Avenue,1,100.0,88101,PM2.5 - Local Conditions,170,Met One BAM-1020 Mass Monitor w/VSCC,40140.0,"Riverside-San Bernardino-Ontario, CA",6,California,71,San Bernardino,34.5109611108812,-117.32554
07/15/2017,AQS,60150002,1,3.8,ug/m3 LC,21,Redwood NP,1,100.0,88502,Acceptable PM2.5 AQI & Speciation Mass,707,"IMPROVE Module A with Cyclone Inlet-Teflon Filter, 2.2 sq. cm.",18860.0,"Crescent City, CA",6,California,15,Del Norte,41.560952388,-124.083964246
09/02/2017,AQS,61112002,3,14.0,ug/m3 LC,60,Simi Valley-Cochran Street,1,100.0,88101,PM2.5 - Local Conditions,170,Met One BAM-1020 Mass Monitor w/VSCC,37100.0,"Oxnard-Thousand Oaks-Ventura, CA",6,California,111,Ventura,34.276316,-118.683685
11/05/2017,AQS,60658001,1,5.1,ug/m3 LC,28,Rubidoux,1,100.0,88101,PM2.5 - Local Conditions,145,R & P Model 2025 PM-2.5 Sequential Air Sampler w/VSCC,40140.0,"Riverside-San Bernardino-Ontario, CA",6,California,65,Riverside,33.9995800008751,-117.41601
11/22/2017,AQS,60190500,1,9.9,ug/m3 LC,52,Table Mountain Air Monitoring Site,1,100.0,88101,PM2.5 - Local Conditions,170,Met One BAM-1020 Mass Monitor w/VSCC,23420.0,"Fresno, CA",6,California,19,Fresno,36.9851185574381,-119.658339349936
09/26/2017,AQS,60074001,3,6.6,ug/m3 LC,37,"TRAFFIC, RURAL PAVED ROAD",1,100.0,88502,Acceptable PM2.5 AQI & Speciation Mass,731,Met-One BAM-1020 W/PM2.5 SCC,17020.0,"Chico, CA",6,California,7,Butte,39.327563,-121.668811
01/04/2017,AQS,60710027,3,18.5,ug/m3 LC,69,Ontario-Route 60 Near Road,1,100.0,88101,PM2.5 - Local Conditions,183,Thermo Scientific 5014i or FH62C14-DHS w/VSCC,40140.0,"Riverside-San Bernardino-Ontario, CA",6,California,71,San Bernardino,34.030833,-117.61722
12/10/2017,AQS,60811001,3,10.2,ug/m3 LC,53,Redwood City,1,100.0,88101,PM2.5 - Local Conditions,170,Met One BAM-1020 Mass Monitor w/VSCC,41860.0,"San Francisco-Oakland-Hayward, CA",6,California,81,San Mateo,37.482934,-122.20337
11/12/2017,AQS,60719010,1,0.8,ug/m3 LC,4,,1,100.0,88502,Acceptable PM2.5 AQI & Speciation Mass,707,"IMPROVE Module A with Cyclone Inlet-Teflon Filter, 2.2 sq. cm.",40140.0,"Riverside-San Bernardino-Ontario, CA",6,California,71,San Bernardino,34.1939253249244,-116.914063106369
03/25/2017,AQS,61111004,3,5.5,ug/m3 LC,31,Ojai - East Ojai Ave,1,100.0,88101,PM2.5 - Local Conditions,170,Met One BAM-1020 Mass Monitor w/VSCC,37100.0,"Oxnard-Thousand Oaks-Ventura, CA",6,California,111,Ventura,34.44806,-119.2313
12/23/2017,AQS,60070008,3,35.2,ug/m3 LC,100,Chico-East Avenue,1,100.0,88502,Acceptable PM2.5 AQI & Speciation Mass,731,Met-One BAM-1020 W/PM2.5 SCC,17020.0,"Chico, CA",6,California,7,Butte,39.76168,-121.84047
03/16/2017,AQS,60792006,3,4.0,ug/m3 LC,22,San Luis Obispo,1,100.0,88101,PM2.5 - Local Conditions,170,Met One BAM-1020 Mass Monitor w/VSCC,42020.0,"San Luis Obispo-Paso Robles-Arroyo Grande, CA",6,California,79,San Luis Obispo,35.25651,-120.6693
01/08/2017,AQS,60590007,1,8.2,ug/m3 LC,46,Anaheim,1,100.0,88101,PM2.5 - Local Conditions,155,Thermo Electron Model RAAS2.5-300 Sequential w/VSCC,31080.0,"Los Angeles-Long Beach-Anaheim, CA",6,California,59,Orange,33.83062,-117.93845
11/11/2017,AQS,60010013,3,7.8,ug/m3 LC,43,Berkeley- Aquatic Park,1,100.0,88101,PM2.5 - Local Conditions,170,Met One BAM-1020 Mass Monitor w/VSCC,41860.0,"San Francisco-Oakland-Hayward, CA",6,California,1,Alameda,37.8647670009145,-122.302741
11/16/2017,AQS,60675003,3,-1.9,ug/m3 LC,0,Sloughhouse,1,100.0,88101,PM2.5 - Local Conditions,170,Met One BAM-1020 Mass Monitor w/VSCC,40900.0,"Sacramento--Roseville--Arden-Arcade, CA",6,California,67,Sacramento,38.494475,-121.211131
03/01/2017,AQS,60150007,1,3.0,ug/m3 LC,17,Crescent City-Crescent Elk School,1,100.0,88101,PM2.5 - Local Conditions,195,GRIMM EDM Model 180 with naphion dryer,18860.0,"Crescent City, CA",6,California,15,Del Norte,41.7561300009374,-124.20347
05/01/2017,AQS,60231004,1,7.0,ug/m3 LC,39,Jacobs,1,100.0,88101,PM2.5 - Local Conditions,143,R & P Model 2000 PM-2.5 Air Sampler w/VSCC,21700.0,"Eureka-Arcata-Fortuna, CA",6,California,23,Humboldt,40.7767800009332,-124.17949
09/03/2017,AQS,60371201,3,19.1,ug/m3 LC,70,Reseda,1,100.0,88502,Acceptable PM2.5 AQI & Speciation Mass,731,Met-One BAM-1020 W/PM2.5 SCC,31080.0,"Los Angeles-Long Beach-Anaheim, CA",6,California,37,Los Angeles,34.19925,-118.53276
01/01/2017,AQS,60070008,5,11.8,ug/m3 LC,56,Chico-East Avenue,1,100.0,88502,Acceptable PM2.5 AQI & Speciation Mass,810,Met One SASS/SuperSASS Teflon,17020.0,"Chico, CA",6,California,7,Butte,39.76168,-121.84047
02/05/2017,AQS,60792007,1,2.7,ug/m3 LC,15,CDF,1,100.0,88101,PM2.5 - Local Conditions,170,Met One BAM-1020 Mass Monitor w/VSCC,42020.0,"San Luis Obispo-Paso Robles-Arroyo Grande, CA",6,California,79,San Luis Obispo,35.0467300008874,-120.58777
03/17/2017,AQS,60690003,1,5.9,ug/m3 LC,33,Pinnacles NP - Southwest of East Entrance Station,1,100.0,88502,Acceptable PM2.5 AQI & Speciation Mass,707,"IMPROVE Module A with Cyclone Inlet-Teflon Filter, 2.2 sq. cm.",41940.0,"San Jose-Sunnyvale-Santa Clara, CA",6,California,69,San Benito,36.48324,-121.15688
06/30/2017,AQS,60651016,1,21.6,ug/m3 LC,74,Morongo Air Monitoring Station,1,100.0,88101,PM2.5 - Local Conditions,170,Met One BAM-1020 Mass Monitor w/VSCC,40140.0,"Riverside-San Bernardino-Ontario, CA",6,California,65,Riverside,33.9447129,-116.830074
10/20/2017,AQS,60530008,3,3.5,ug/m3 LC,19,King City 2,1,100.0,88101,PM2.5 - Local Conditions,170,Met One BAM-1020 Mass Monitor w/VSCC,41500.0,"Salinas, CA",6,California,53,Monterey,36.2092860008996,-121.126371
06/17/2017,AQS,60970004,3,6.1,ug/m3 LC,34,Sebastopol,1,100.0,88101,PM2.5 - Local Conditions,170,Met One BAM-1020 Mass Monitor w/VSCC,42220.0,"Santa Rosa, CA",6,California,97,Sonoma,38.403765,-122.818294
07/14/2017,AQS,60710306,1,16.1,ug/m3 LC,64,Victorville-Park Avenue,1,100.0,88101,PM2.5 - Local Conditions,170,Met One BAM-1020 Mass Monitor w/VSCC,40140.0,"Riverside-San Bernardino-Ontario, CA",6,California,71,San Bernardino,34.5109611108812,-117.32554
11/24/2017,AQS,60832004,1,9.5,ug/m3 LC,52,Lompoc H Street,1,100.0,88101,PM2.5 - Local Conditions,170,Met One BAM-1020 Mass Monitor w/VSCC,42200.0,"Santa Maria-Santa Barbara, CA",6,California,83,Santa Barbara,34.6378200008827,-120.4575
08/18/2017,AQS,61112002,4,12.4,ug/m3 LC,57,Simi Valley-Cochran Street,1,100.0,88101,PM2.5 - Local Conditions,170,Met One BAM-1020 Mass Monitor w/VSCC,37100.0,"Oxnard-Thousand Oaks-Ventura, CA",6,California,111,Ventura,34.276316,-118.683685
01/26/2017,AQS,60410001,3,9.1,ug/m3 LC,51,San Rafael,1,100.0,88101,PM2.5 - Local Conditions,170,Met One BAM-1020 Mass Monitor w/VSCC,41860.0,"San Francisco-Oakland-Hayward, CA",6,California,41,Marin,37.97231,-122.520004
10/06/2017,AQS,60452002,3,8.9,ug/m3 LC,49,Willits-125 East Commercial Street,1,100.0,88101,PM2.5 - Local Conditions,170,Met One BAM-1020 Mass Monitor w/VSCC,46380.0,"Ukiah, CA",6,California,45,Mendocino,39.41174,-123.35264
05/15/2017,AQS,60371103,1,8.2,ug/m3 LC,46,Los Angeles-North Main Street,1,100.0,88101,PM2.5 - Local Conditions,145,R & P Model 2025 PM-2.5 Sequential Air Sampler w/VSCC,31080.0,"Los Angeles-Long Beach-Anaheim, CA",6,California,37,Los Angeles,34.0665900008759,-118.22688
02/10/2017,AQS,60631006,1,6.2,ug/m3 LC,34,Quincy-N Church Street,1,100.0,88101,PM2.5 - Local Conditions,145,R & P Model 2025 PM-2.5 Sequential Air Sampler w/VSCC,,,6,California,63,Plumas,39.9395670009288,-120.944376
11/16/2017,AQS,60658001,9,27.7,ug/m3 LC,86,Rubidoux,1,100.0,88101,PM2.5 - Local Conditions,170,Met One BAM-1020 Mass Monitor w/VSCC,40140.0,"Riverside-San Bernardino-Ontario, CA",6,California,65,Riverside,33.9995800008751,-117.41601
12/30/2017,AQS,60670012,3,8.0,ug/m3 LC,44,Folsom-Natoma St.,1,100.0,88101,PM2.5 - Local Conditions,170,Met One BAM-1020 Mass Monitor w/VSCC,40900.0,"Sacramento--Roseville--Arden-Arcade, CA",6,California,67,Sacramento,38.683304,-121.164457
09/01/2017,AQS,60250007,1,9.2,ug/m3 LC,51,Brawley-220 Main Street,1,100.0,88101,PM2.5 - Local Conditions,145,R & P Model 2025 PM-2.5 Sequential Air Sampler w/VSCC,20940.0,"El Centro, CA",6,California,25,Imperial,32.97833,-115.53917
01/01/2017,AQS,60470003,3,10.2,ug/m3 LC,53,Merced-Coffee,1,100.0,88101,PM2.5 - Local Conditions,170,Met One BAM-1020 Mass Monitor w/VSCC,32900.0,"Merced, CA",6,California,47,Merced,37.281853,-120.433671
11/18/2017,AQS,60250007,1,5.5,ug/m3 LC,31,Brawley-220 Main Street,1,100.0,88101,PM2.5 - Local Conditions,145,R & P Model 2025 PM-2.5 Sequential Air Sampler w/VSCC,20940.0,"El Centro, CA",6,California,25,Imperial,32.97833,-115.53917
09/10/2017,AQS,60371302,1,10.7,ug/m3 LC,54,Compton,1,100.0,88101,PM2.5 - Local Conditions,155,Thermo Electron Model RAAS2.5-300 Sequential w/VSCC,31080.0,"Los Angeles-Long Beach-Anaheim, CA",6,California,37,Los Angeles,33.9013890008739,-118.205
03/27/2017,AQS,60271003,3,14.9,ug/m3 LC,62,Keeler,1,100.0,88101,PM2.5 - Local Conditions,181,Thermo Scientific TEOM 1400 FDMS or 1405 8500C FDMS w/VSCC,13860.0,"Bishop, CA",6,California,27,Inyo,36.487823,-117.871036
06/15/2017,AQS,60195025,1,6.6,ug/m3 LC,37,Fresno-Pacific,1,100.0,88101,PM2.5 - Local Conditions,145,R & P Model 2025 PM-2.5 Sequential Air Sampler w/VSCC,23420.0,"Fresno, CA",6,California,19,Fresno,36.72639,-119.733
09/30/2017,AQS,60631006,1,6.8,ug/m3 LC,38,Quincy-N Church Street,1,100.0,88101,PM2.5 - Local Conditions,145,R & P Model 2025 PM-2.5 Sequential Air Sampler w/VSCC,,,6,California,63,Plumas,39.9395670009288,-120.944376
02/26/2017,AQS,60731201,1,3.2,ug/m3 LC,18,Pala Airpad,1,100.0,88101,PM2.5 - Local Conditions,236,Teledyne T640 at 5.0 LPM,41740.0,"San Diego-Carlsbad, CA",6,California,73,San Diego,33.3625928342781,-117.090229999878
10/27/2017,AQS,60250005,1,20.3,ug/m3 LC,72,Calexico-Ethel Street,1,100.0,88101,PM2.5 - Local Conditions,145,R & P Model 2025 PM-2.5 Sequential Air Sampler w/VSCC,20940.0,"El Centro, CA",6,California,25,Imperial,32.67618,-115.48307
10/04/2017,AQS,60374002,1,8.3,ug/m3 LC,46,Long Beach (North),1,100.0,88101,PM2.5 - Local Conditions,145,R & P Model 2025 PM-2.5 Sequential Air Sampler w/VSCC,31080.0,"Los Angeles-Long Beach-Anaheim, CA",6,California,37,Los Angeles,33.82376,-118.18921
04/24/2017,AQS,60550003,3,6.8,ug/m3 LC,38,Napa,1,100.0,88101,PM2.5 - Local Conditions,170,Met One BAM-1020 Mass Monitor w/VSCC,34900.0,"Napa, CA",6,California,55,Napa,38.310942,-122.296189
06/15/2017,AQS,60730001,1,12.4,ug/m3 LC,57,Chula Vista,1,100.0,88101,PM2.5 - Local Conditions,145,R & P Model 2025 PM-2.5 Sequential Air Sampler w/VSCC,41740.0,"San Diego-Carlsbad, CA",6,California,73,San Diego,32.6312420008573,-117.059088
02/10/2017,AQS,60090001,3,8.7,ug/m3 LC,48,San Andreas-Gold Strike Road,1,100.0,88101,PM2.5 - Local Conditions,170,Met One BAM-1020 Mass Monitor w/VSCC,,,6,California,9,Calaveras,38.20185,-120.680277
02/12/2017,AQS,60250005,5,2.5,ug/m3 LC,14,Calexico-Ethel Street,1,100.0,88502,Acceptable PM2.5 AQI & Speciation Mass,810,Met One SASS/SuperSASS Teflon,20940.0,"El Centro, CA",6,California,25,Imperial,32.67618,-115.48307
07/18/2017,AQS,60970004,3,8.5,ug/m3 LC,47,Sebastopol,1,100.0,88101,PM2.5 - Local Conditions,170,Met One BAM-1020 Mass Monitor w/VSCC,42220.0,"Santa Rosa, CA",6,California,97,Sonoma,38.403765,-122.818294
10/26/2017,AQS,60870007,3,10.4,ug/m3 LC,53,Santa Cruz,1,100.0,88101,PM2.5 - Local Conditions,170,Met One BAM-1020 Mass Monitor w/VSCC,42100.0,"Santa Cruz-Watsonville, CA",6,California,87,Santa Cruz,36.983320000907,-121.98822
01/30/2017,AQS,60970004,3,12.7,ug/m3 LC,58,Sebastopol,1,100.0,88101,PM2.5 - Local Conditions,170,Met One BAM-1020 Mass Monitor w/VSCC,42220.0,"Santa Rosa, CA",6,California,97,Sonoma,38.403765,-122.818294
10/13/2017,AQS,60195001,1,25.8,ug/m3 LC,82,Clovis-Villa,1,100.0,88101,PM2.5 - Local Conditions,145,R & P Model 2025 PM-2.5 Sequential Air Sampler w/VSCC,23420.0,"Fresno, CA",6,California,19,Fresno,36.819449,-119.716433
06/22/2017,AQS,60792006,3,3.1,ug/m3 LC,17,San Luis Obispo,1,100.0,88101,PM2.5 - Local Conditions,170,Met One BAM-1020 Mass Monitor w/VSCC,42020.0,"San Luis Obispo-Paso Robles-Arroyo Grande, CA",6,California,79,San Luis Obispo,35.25651,-120.6693
01/04/2017,AQS,60010011,3,5.8,ug/m3 LC,32,Oakland West,1,100.0,88101,PM2.5 - Local Conditions,170,Met One BAM-1020 Mass Monitor w/VSCC,41860.0,"San Francisco-Oakland-Hayward, CA",6,California,1,Alameda,37.814781,-122.282347
04/30/2017,AQS,60670006,3,7.7,ug/m3 LC,43,Sacramento-Del Paso Manor,1,100.0,88502,Acceptable PM2.5 AQI & Speciation Mass,731,Met-One BAM-1020 W/PM2.5 SCC,40900.0,"Sacramento--Roseville--Arden-Arcade, CA",6,California,67,Sacramento,38.6137790009202,-121.368014
08/09/2017,AQS,60531003,3,5.2,ug/m3 LC,29,Salinas 3,1,100.0,88101,PM2.5 - Local Conditions,170,Met One BAM-1020 Mass Monitor w/VSCC,41500.0,"Salinas, CA",6,California,53,Monterey,36.6942610009043,-121.623271
10/22/2017,AQS,60710005,3,5.2,ug/m3 LC,29,Crestline,1,100.0,88502,Acceptable PM2.5 AQI & Speciation Mass,731,Met-One BAM-1020 W/PM2.5 SCC,40140.0,"Riverside-San Bernardino-Ontario, CA",6,California,71,San Bernardino,34.2431,-117.27235
05/29/2017,AQS,60731006,1,10.7,ug/m3 LC,54,Alpine,1,100.0,88502,Acceptable PM2.5 AQI & Speciation Mass,733,Met-One BAM W/PM2.5 VSCC,41740.0,"San Diego-Carlsbad, CA",6,California,73,San Diego,32.8423180008601,-116.768293
07/17/2017,AQS,60530008,3,15.5,ug/m3 LC,63,King City 2,1,100.0,88101,PM2.5 - Local Conditions,170,Met One BAM-1020 Mass Monitor w/VSCC,41500.0,"Salinas, CA",6,California,53,Monterey,36.2092860008996,-121.126371
12/13/2017,AQS,60470003,3,29.6,ug/m3 LC,89,Merced-Coffee,1,100.0,88101,PM2.5 - Local Conditions,170,Met One BAM-1020 Mass Monitor w/VSCC,32900.0,"Merced, CA",6,California,47,Merced,37.281853,-120.433671
02/13/2017,AQS,60110007,1,3.1,ug/m3 LC,17,Cortina Indian Rancheria,1,100.0,88101,PM2.5 - Local Conditions,170,Met One BAM-1020 Mass Monitor w/VSCC,,,6,California,11,Colusa,39.0212210009231,-122.281803
08/22/2017,AQS,60270002,1,3.4,ug/m3 LC,19,White Mountain Research Center - Owens Valley Lab,1,100.0,88101,PM2.5 - Local Conditions,181,Thermo Scientific TEOM 1400 FDMS or 1405 8500C FDMS w/VSCC,13860.0,"Bishop, CA",6,California,27,Inyo,37.360684,-118.330783
03/06/2017,AQS,61010003,3,7.0,ug/m3 LC,39,Yuba City,1,100.0,88502,Acceptable PM2.5 AQI & Speciation Mass,731,Met-One BAM-1020 W/PM2.5 SCC,49700.0,"Yuba City, CA",6,California,101,Sutter,39.1387725442464,-121.618548986224
01/16/2017,AQS,60670012,4,14.2,ug/m3 LC,61,Folsom-Natoma St.,1,100.0,88101,PM2.5 - Local Conditions,170,Met One BAM-1020 Mass Monitor w/VSCC,40900.0,"Sacramento--Roseville--Arden-Arcade, CA",6,California,67,Sacramento,38.683304,-121.164457
03/14/2017,AQS,60652002,1,5.9,ug/m3 LC,33,Indio,1,100.0,88101,PM2.5 - Local Conditions,155,Thermo Electron Model RAAS2.5-300 Sequential w/VSCC,40140.0,"Riverside-San Bernardino-Ontario, CA",6,California,65,Riverside,33.70853,-116.21537
04/28/2017,AQS,60374008,1,9.1,ug/m3 LC,51,Long Beach-Route 710 Near Road,1,100.0,88101,PM2.5 - Local Conditions,145,R & P Model 2025 PM-2.5 Sequential Air Sampler w/VSCC,31080.0,"Los Angeles-Long Beach-Anaheim, CA",6,California,37,Los Angeles,33.8596620008734,-118.200707
05/27/2017,AQS,60250005,1,7.7,ug/m3 LC,43,Calexico-Ethel Street,1,100.0,88101,PM2.5 - Local Conditions,145,R & P Model 2025 PM-2.5 Sequential Air Sampler w/VSCC,20940.0,"El Centro, CA",6,California,25,Imperial,32.67618,-115.48307
11/19/2017,AQS,60731011,3,1.6,ug/m3 LC,9,La Posta Reservation,1,100.0,88101,PM2.5 - Local Conditions,170,Met One BAM-1020 Mass Monitor w/VSCC,41740.0,"San Diego-Carlsbad, CA",6,California,73,San Diego,32.7252260005939,-116.365203426694
05/04/2017,AQS,61030007,3,3.8,ug/m3 LC,21,Red Bluff-Walnut St. District Office,1,100.0,88101,PM2.5 - Local Conditions,170,Met One BAM-1020 Mass Monitor w/VSCC,39780.0,"Red Bluff, CA",6,California,103,Tehama,40.17093,-122.25556
02/26/2017,AQS,60290014,3,16.0,ug/m3 LC,64,Bakersfield-California,1,100.0,88502,Acceptable PM2.5 AQI & Speciation Mass,731,Met-One BAM-1020 W/PM2.5 SCC,12540.0,"Bakersfield, CA",6,California,29,Kern,35.356615,-119.062613
10/24/2017,AQS,60871005,3,1.7,ug/m3 LC,9,San Lorenzo Valley Middle School,1,100.0,88101,PM2.5 - Local Conditions,170,Met One BAM-1020 Mass Monitor w/VSCC,42100.0,"Santa Cruz-Watsonville, CA",6,California,87,Santa Cruz,37.0631500009077,-122.083092
10/29/2017,AQS,60370016,3,28.1,ug/m3 LC,86,Glendora,1,100.0,88502,Acceptable PM2.5 AQI & Speciation Mass,731,Met-One BAM-1020 W/PM2.5 SCC,31080.0,"Los Angeles-Long Beach-Anaheim, CA",6,California,37,Los Angeles,34.14435,-117.85036
09/07/2017,AQS,60658005,3,20.0,ug/m3 LC,71,Mira Loma (Van Buren),1,100.0,88502,Acceptable PM2.5 AQI & Speciation Mass,170,Met-one BAM-1020 W/PM2.5 SCC,40140.0,"Riverside-San Bernardino-Ontario, CA",6,California,65,Riverside,33.996360000875,-117.4924
03/05/2017,AQS,60990005,5,1.0,ug/m3 LC,6,Modesto-14th Street,1,100.0,88502,Acceptable PM2.5 AQI & Speciation Mass,810,Met One SASS/SuperSASS Teflon,33700.0,"Modesto, CA",6,California,99,Stanislaus,37.642165,-120.994212
04/25/2017,AQS,60710027,1,12.9,ug/m3 LC,58,Ontario-Route 60 Near Road,1,100.0,88101,PM2.5 - Local Conditions,145,R & P Model 2025 PM-2.5 Sequential Air Sampler w/VSCC,40140.0,"Riverside-San Bernardino-Ontario, CA",6,California,71,San Bernardino,34.030833,-117.61722
11/30/2017,AQS,60370002,1,12.4,ug/m3 LC,57,Azusa,1,100.0,88101,PM2.5 - Local Conditions,155,Thermo Electron Model RAAS2.5-300 Sequential w/VSCC,31080.0,"Los Angeles-Long Beach-Anaheim, CA",6,California,37,Los Angeles,34.1365,-117.92391
11/09/2017,AQS,60893003,1,0.4,ug/m3 LC,2,Lassen Volcanic NP - Manzanita Lake Fire Station,1,100.0,88502,Acceptable PM2.5 AQI & Speciation Mass,707,"IMPROVE Module A with Cyclone Inlet-Teflon Filter, 2.2 sq. cm.",39820.0,"Redding, CA",6,California,89,Shasta,40.53999,-121.57646
03/03/2017,AQS,60670006,3,23.7,ug/m3 LC,78,Sacramento-Del Paso Manor,1,100.0,88502,Acceptable PM2.5 AQI & Speciation Mass,731,Met-One BAM-1020 W/PM2.5 SCC,40900.0,"Sacramento--Roseville--Arden-Arcade, CA",6,California,67,Sacramento,38.6137790009202,-121.368014
03/31/2017,AQS,60651016,1,12.5,ug/m3 LC,57,Morongo Air Monitoring Station,1,100.0,88101,PM2.5 - Local Conditions,170,Met One BAM-1020 Mass Monitor w/VSCC,40140.0,"Riverside-San Bernardino-Ontario, CA",6,California,65,Riverside,33.9447129,-116.830074
04/13/2017,AQS,60610006,3,0.8,ug/m3 LC,4,Roseville-N Sunrise Ave,1,100.0,88502,Acceptable PM2.5 AQI & Speciation Mass,731,Met-One BAM-1020 W/PM2.5 SCC,40900.0,"Sacramento--Roseville--Arden-Arcade, CA",6,California,61,Placer,38.74643,-121.26498
08/22/2017,AQS,60290014,3,17.4,ug/m3 LC,66,Bakersfield-California,1,100.0,88502,Acceptable PM2.5 AQI & Speciation Mass,731,Met-One BAM-1020 W/PM2.5 SCC,12540.0,"Bakersfield, CA",6,California,29,Kern,35.356615,-119.062613
08/10/2017,AQS,60710306,2,8.6,ug/m3 LC,48,Victorville-Park Avenue,1,100.0,88101,PM2.5 - Local Conditions,170,Met One BAM-1020 Mass Monitor w/VSCC,40140.0,"Riverside-San Bernardino-Ontario, CA",6,California,71,San Bernardino,34.5109611108812,-117.32554
11/13/2017,AQS,60190011,3,16.2,ug/m3 LC,64,Fresno - Garland,1,100.0,88101,PM2.5 - Local Conditions,170,Met One BAM-1020 Mass Monitor w/VSCC,23420.0,"Fresno, CA",6,California,19,Fresno,36.78538,-119.77321
04/18/2017,AQS,60831008,3,4.3,ug/m3 LC,24,Santa Maria,1,100.0,88101,PM2.5 - Local Conditions,170,Met One BAM-1020 Mass Monitor w/VSCC,42200.0,"Santa Maria-Santa Barbara, CA",6,California,83,Santa Barbara,34.942872,-120.435611
06/08/2017,AQS,60570005,1,2.5,ug/m3 LC,14,Grass Valley-Litton Building,1,100.0,88101,PM2.5 - Local Conditions,143,R & P Model 2000 PM-2.5 Air Sampler w/VSCC,46020.0,"Truckee-Grass Valley, CA",6,California,57,Nevada,39.2334770009245,-121.055608
09/06/2017,AQS,60850006,3,15.0,ug/m3 LC,62,San Jose - Knox Avenue,1,100.0,88101,PM2.5 - Local Conditions,170,Met One BAM-1020 Mass Monitor w/VSCC,41940.0,"San Jose-Sunnyvale-Santa Clara, CA",6,California,85,Santa Clara,37.338135,-121.849783
11/30/2017,AQS,60731006,1,6.6,ug/m3 LC,37,Alpine,1,100.0,88502,Acceptable PM2.5 AQI & Speciation Mass,733,Met-One BAM W/PM2.5 VSCC,41740.0,"San Diego-Carlsbad, CA",6,California,73,San Diego,32.8423180008601,-116.768293
02/18/2017,AQS,60731006,1,2.8,ug/m3 LC,16,Alpine,1,100.0,88502,Acceptable PM2.5 AQI & Speciation Mass,733,Met-One BAM W/PM2.5 VSCC,41740.0,"San Diego-Carlsbad, CA",6,California,73,San Diego,32.8423180008601,-116.768293
02/06/2017,AQS,60130002,3,4.9,ug/m3 LC,27,Concord,1,100.0,88101,PM2.5 - Local Conditions,170,Met One BAM-1020 Mass Monitor w/VSCC,41860.0,"San Francisco-Oakland-Hayward, CA",6,California,13,Contra Costa,37.936013,-122.026154
12/24/2017,AQS,60870007,3,16.7,ug/m3 LC,65,Santa Cruz,1,100.0,88101,PM2.5 - Local Conditions,170,Met One BAM-1020 Mass Monitor w/VSCC,42100.0,"Santa Cruz-Watsonville, CA",6,California,87,Santa Cruz,36.983320000907,-121.98822
08/23/2017,AQS,60074001,3,20.0,ug/m3 LC,71,"TRAFFIC, RURAL PAVED ROAD",1,100.0,88502,Acceptable PM2.5 AQI & Speciation Mass,731,Met-One BAM-1020 W/PM2.5 SCC,17020.0,"Chico, CA",6,California,7,Butte,39.327563,-121.668811
09/02/2017,AQS,60731201,1,13.2,ug/m3 LC,59,Pala Airpad,1,100.0,88101,PM2.5 - Local Conditions,236,Teledyne T640 at 5.0 LPM,41740.0,"San Diego-Carlsbad, CA",6,California,73,San Diego,33.3625928342781,-117.090229999878
01/10/2017,AQS,60670010,3,1.1,ug/m3 LC,6,Sacramento-1309 T Street,1,100.0,88502,Acceptable PM2.5 AQI & Speciation Mass,731,Met-One BAM-1020 W/PM2.5 SCC,40900.0,"Sacramento--Roseville--Arden-Arcade, CA",6,California,67,Sacramento,38.56844,-121.49311
08/19/2017,AQS,60731022,1,9.8,ug/m3 LC,52,El Cajon - Lexington Elementary School,1,100.0,88502,Acceptable PM2.5 AQI & Speciation Mass,733,Met-One BAM W/PM2.5 VSCC,41740.0,"San Diego-Carlsbad, CA",6,California,73,San Diego,32.7895650008594,-116.944308
09/03/2017,AQS,60651016,1,15.2,ug/m3 LC,62,Morongo Air Monitoring Station,1,100.0,88101,PM2.5 - Local Conditions,170,Met One BAM-1020 Mass Monitor w/VSCC,40140.0,"Riverside-San Bernardino-Ontario, CA",6,California,65,Riverside,33.9447129,-116.830074
06/28/2017,AQS,60731011,3,3.0,ug/m3 LC,17,La Posta Reservation,1,100.0,88101,PM2.5 - Local Conditions,170,Met One BAM-1020 Mass Monitor w/VSCC,41740.0,"San Diego-Carlsbad, CA",6,California,73,San Diego,32.7252260005939,-116.365203426694
11/21/2017,AQS,60839000,1,0.7,ug/m3 LC,4,San Rafael Wilderness,1,100.0,88502,Acceptable PM2.5 AQI & Speciation Mass,707,"IMPROVE Module A with Cyclone Inlet-Teflon Filter, 2.2 sq. cm.",42200.0,"Santa Maria-Santa Barbara, CA",6,California,83,Santa Barbara,34.733888868675,-120.00834936928
09/06/2017,AQS,61130004,3,14.4,ug/m3 LC,61,Davis-UCD Campus,1,100.0,88502,Acceptable PM2.5 AQI & Speciation Mass,731,Met-One BAM-1020 W/PM2.5 SCC,40900.0,"Sacramento--Roseville--Arden-Arcade, CA",6,California,113,Yolo,38.53445,-121.7734
03/16/2017,AQS,60110007,1,0.0,ug/m3 LC,0,Cortina Indian Rancheria,1,100.0,88101,PM2.5 - Local Conditions,170,Met One BAM-1020 Mass Monitor w/VSCC,,,6,California,11,Colusa,39.0212210009231,-122.281803
04/25/2017,AQS,60610006,1,2.7,ug/m3 LC,15,Roseville-N Sunrise Ave,1,100.0,88101,PM2.5 - Local Conditions,143,R & P Model 2000 PM-2.5 Air Sampler w/VSCC,40900.0,"Sacramento--Roseville--Arden-Arcade, CA",6,California,61,Placer,38.74643,-121.26498
08/05/2017,AQS,60710027,3,12.9,ug/m3 LC,58,Ontario-Route 60 Near Road,1,100.0,88101,PM2.5 - Local Conditions,183,Thermo Scientific 5014i or FH62C14-DHS w/VSCC,40140.0,"Riverside-San Bernardino-Ontario, CA",6,California,71,San Bernardino,34.030833,-117.61722
11/22/2017,AQS,60374008,1,14.9,ug/m3 LC,62,Long Beach-Route 710 Near Road,1,100.0,88101,PM2.5 - Local Conditions,145,R & P Model 2025 PM-2.5 Sequential Air Sampler w/VSCC,31080.0,"Los Angeles-Long Beach-Anaheim, CA",6,California,37,Los Angeles,33.8596620008734,-118.200707
11/05/2017,AQS,60771002,4,7.1,ug/m3 LC,39,Stockton-Hazelton,1,100.0,88101,PM2.5 - Local Conditions,170,Met One BAM-1020 Mass Monitor w/VSCC,44700.0,"Stockton-Lodi, CA",6,California,77,San Joaquin,37.9507408985318,-121.268522670981
01/21/2017,AQS,60371103,1,5.5,ug/m3 LC,31,Los Angeles-North Main Street,1,100.0,88101,PM2.5 - Local Conditions,145,R & P Model 2025 PM-2.5 Sequential Air Sampler w/VSCC,31080.0,"Los Angeles-Long Beach-Anaheim, CA",6,California,37,Los Angeles,34.0665900008759,-118.22688
08/07/2017,AQS,60658001,1,11.9,ug/m3 LC,56,Rubidoux,1,100.0,88101,PM2.5 - Local Conditions,145,R & P Model 2025 PM-2.5 Sequential Air Sampler w/VSCC,40140.0,"Riverside-San Bernardino-Ontario, CA",6,California,65,Riverside,33.9995800008751,-117.41601
01/13/2017,AQS,60271003,3,4.3,ug/m3 LC,24,Keeler,1,100.0,88101,PM2.5 - Local Conditions,181,Thermo Scientific TEOM 1400 FDMS or 1405 8500C FDMS w/VSCC,13860.0,"Bishop, CA",6,California,27,Inyo,36.487823,-117.871036
11/07/2017,AQS,60670012,3,6.6,ug/m3 LC,37,Folsom-Natoma St.,1,100.0,88101,PM2.5 - Local Conditions,170,Met One BAM-1020 Mass Monitor w/VSCC,40900.0,"Sacramento--Roseville--Arden-Arcade, CA",6,California,67,Sacramento,38.683304,-121.164457
07/21/2017,AQS,60299001,1,11.8,ug/m3 LC,56,Lebec-Peace Valley/Frazier Park Roads,1,100.0,88502,Acceptable PM2.5 AQI & Speciation Mass,707,"IMPROVE Module A with Cyclone Inlet-Teflon Filter, 2.2 sq. cm.",12540.0,"Bakersfield, CA",6,California,29,Kern,34.821921799,-118.88759767
12/28/2017,AQS,61130004,3,5.9,ug/m3 LC,33,Davis-UCD Campus,1,100.0,88502,Acceptable PM2.5 AQI & Speciation Mass,731,Met-One BAM-1020 W/PM2.5 SCC,40900.0,"Sacramento--Roseville--Arden-Arcade, CA",6,California,113,Yolo,38.53445,-121.7734
10/27/2017,AQS,60658005,3,26.9,ug/m3 LC,84,Mira Loma (Van Buren),1,100.0,88502,Acceptable PM2.5 AQI & Speciation Mass,170,Met-one BAM-1020 W/PM2.5 SCC,40140.0,"Riverside-San Bernardino-Ontario, CA",6,California,65,Riverside,33.996360000875,-117.4924
11/09/2017,AQS,60290010,1,5.1,ug/m3 LC,28,Bakersfield-Golden / M St,1,100.0,88101,PM2.5 - Local Conditions,145,R & P Model 2025 PM-2.5 Sequential Air Sampler w/VSCC,12540.0,"Bakersfield, CA",6,California,29,Kern,35.385574,-119.015009
06/18/2017,AQS,60450006,3,3.2,ug/m3 LC,18,Ukiah-Library,1,100.0,88101,PM2.5 - Local Conditions,170,Met One BAM-1020 Mass Monitor w/VSCC,46380.0,"Ukiah, CA",6,California,45,Mendocino,39.15047,-123.20655
05/17/2017,AQS,61112002,3,9.0,ug/m3 LC,50,Simi Valley-Cochran Street,1,100.0,88101,PM2.5 - Local Conditions,170,Met One BAM-1020 Mass Monitor w/VSCC,37100.0,"Oxnard-Thousand Oaks-Ventura, CA",6,California,111,Ventura,34.276316,-118.683685
12/26/2017,AQS,60771002,3,32.8,ug/m3 LC,95,Stockton-Hazelton,1,100.0,88101,PM2.5 - Local Conditions,170,Met One BAM-1020 Mass Monitor w/VSCC,44700.0,"Stockton-Lodi, CA",6,California,77,San Joaquin,37.9507408985318,-121.268522670981
05/20/2017,AQS,60590007,3,10.2,ug/m3 LC,53,Anaheim,1,100.0,88101,PM2.5 - Local Conditions,170,Met One BAM-1020 Mass Monitor w/VSCC,31080.0,"Los Angeles-Long Beach-Anaheim, CA",6,California,59,Orange,33.83062,-117.93845
01/22/2017,AQS,60811001,3,2.0,ug/m3 LC,11,Redwood City,1,100.0,88101,PM2.5 - Local Conditions,170,Met One BAM-1020 Mass Monitor w/VSCC,41860.0,"San Francisco-Oakland-Hayward, CA",6,California,81,San Mateo,37.482934,-122.20337
02/27/2017,AQS,60192009,3,1.8,ug/m3 LC,10,Tranquillity,1,100.0,88101,PM2.5 - Local Conditions,170,Met One BAM-1020 Mass Monitor w/VSCC,23420.0,"Fresno, CA",6,California,19,Fresno,36.6342250009037,-120.382331
01/03/2017,AQS,60832011,1,5.9,ug/m3 LC,33,Goleta,1,100.0,88101,PM2.5 - Local Conditions,170,Met One BAM-1020 Mass Monitor w/VSCC,42200.0,"Santa Maria-Santa Barbara, CA",6,California,83,Santa Barbara,34.4455100008805,-119.8284
10/28/2017,AQS,60670012,3,8.1,ug/m3 LC,45,Folsom-Natoma St.,1,100.0,88101,PM2.5 - Local Conditions,170,Met One BAM-1020 Mass Monitor w/VSCC,40900.0,"Sacramento--Roseville--Arden-Arcade, CA",6,California,67,Sacramento,38.683304,-121.164457
05/12/2017,AQS,60792006,3,6.5,ug/m3 LC,36,San Luis Obispo,1,100.0,88101,PM2.5 - Local Conditions,170,Met One BAM-1020 Mass Monitor w/VSCC,42020.0,"San Luis Obispo-Paso Robles-Arroyo Grande, CA",6,California,79,San Luis Obispo,35.25651,-120.6693
01/28/2017,AQS,60850005,1,20.0,ug/m3 LC,71,San Jose - Jackson,1,100.0,88101,PM2.5 - Local Conditions,145,R & P Model 2025 PM-2.5 Sequential Air Sampler w/VSCC,41940.0,"San Jose-Sunnyvale-Santa Clara, CA",6,California,85,Santa Clara,37.348497,-121.894898
10/22/2017,AQS,60010011,3,12.5,ug/m3 LC,57,Oakland West,1,100.0,88101,PM2.5 - Local Conditions,170,Met One BAM-1020 Mass Monitor w/VSCC,41860.0,"San Francisco-Oakland-Hayward, CA",6,California,1,Alameda,37.814781,-122.282347
12/13/2017,AQS,60710306,2,13.0,ug/m3 LC,58,Victorville-Park Avenue,1,100.0,88101,PM2.5 - Local Conditions,170,Met One BAM-1020 Mass Monitor w/VSCC,40140.0,"Riverside-San Bernardino-Ontario, CA",6,California,71,San Bernardino,34.5109611108812,-117.32554
01/08/2017,AQS,60374008,1,20.5,ug/m3 LC,72,Long Beach-Route 710 Near Road,1,100.0,88101,PM2.5 - Local Conditions,145,R & P Model 2025 PM-2.5 Sequential Air Sampler w/VSCC,31080.0,"Los Angeles-Long Beach-Anaheim, CA",6,California,37,Los Angeles,33.8596620008734,-118.200707
06/11/2017,AQS,60792004,1,14.6,ug/m3 LC,61,Mesa2,1,100.0,88101,PM2.5 - Local Conditions,170,Met One BAM-1020 Mass Monitor w/VSCC,42020.0,"San Luis Obispo-Paso Robles-Arroyo Grande, CA",6,California,79,San Luis Obispo,35.02083,-120.56388
10/25/2017,AQS,60658001,1,13.0,ug/m3 LC,58,Rubidoux,1,100.0,88101,PM2.5 - Local Conditions,145,R & P Model 2025 PM-2.5 Sequential Air Sampler w/VSCC,40140.0,"Riverside-San Bernardino-Ontario, CA",6,California,65,Riverside,33.9995800008751,-117.41601
10/31/2017,AQS,60832004,1,4.4,ug/m3 LC,24,Lompoc H Street,1,100.0,88101,PM2.5 - Local Conditions,170,Met One BAM-1020 Mass Monitor w/VSCC,42200.0,"Santa Maria-Santa Barbara, CA",6,California,83,Santa Barbara,34.6378200008827,-120.4575
11/21/2017,AQS,60371201,1,8.7,ug/m3 LC,48,Reseda,1,100.0,88101,PM2.5 - Local Conditions,155,Thermo Electron Model RAAS2.5-300 Sequential w/VSCC,31080.0,"Los Angeles-Long Beach-Anaheim, CA",6,California,37,Los Angeles,34.19925,-118.53276
12/11/2017,AQS,60190500,1,9.3,ug/m3 LC,51,Table Mountain Air Monitoring Site,1,100.0,88101,PM2.5 - Local Conditions,170,Met One BAM-1020 Mass Monitor w/VSCC,23420.0,"Fresno, CA",6,California,19,Fresno,36.9851185574381,-119.658339349936
04/04/2017,AQS,60719004,1,9.7,ug/m3 LC,52,San Bernardino,1,100.0,88101,PM2.5 - Local Conditions,155,Thermo Electron Model RAAS2.5-300 Sequential w/VSCC,40140.0,"Riverside-San Bernardino-Ontario, CA",6,California,71,San Bernardino,34.1066780008763,-117.274063
12/01/2017,AQS,60610006,3,19.5,ug/m3 LC,70,Roseville-N Sunrise Ave,1,100.0,88502,Acceptable PM2.5 AQI & Speciation Mass,731,Met-One BAM-1020 W/PM2.5 SCC,40900.0,"Sacramento--Roseville--Arden-Arcade, CA",6,California,61,Placer,38.74643,-121.26498
09/04/2017,AQS,60250005,2,8.8,ug/m3 LC,49,Calexico-Ethel Street,1,100.0,88101,PM2.5 - Local Conditions,145,R & P Model 2025 PM-2.5 Sequential Air Sampler w/VSCC,20940.0,"El Centro, CA",6,California,25,Imperial,32.67618,-115.48307
04/21/2017,AQS,60371103,9,15.4,ug/m3 LC,63,Los Angeles-North Main Street,1,100.0,88502,Acceptable PM2.5 AQI & Speciation Mass,170,Met-one BAM-1020 W/PM2.5 SCC,31080.0,"Los Angeles-Long Beach-Anaheim, CA",6,California,37,Los Angeles,34.0665900008759,-118.22688
10/23/2017,AQS,60130002,3,10.2,ug/m3 LC,53,Concord,1,100.0,88101,PM2.5 - Local Conditions,170,Met One BAM-1020 Mass Monitor w/VSCC,41860.0,"San Francisco-Oakland-Hayward, CA",6,California,13,Contra Costa,37.936013,-122.026154
11/14/2017,AQS,60010013,3,5.7,ug/m3 LC,32,Berkeley- Aquatic Park,1,100.0,88101,PM2.5 - Local Conditions,170,Met One BAM-1020 Mass Monitor w/VSCC,41860.0,"San Francisco-Oakland-Hayward, CA",6,California,1,Alameda,37.8647670009145,-122.302741
01/15/2017,AQS,60374002,1,10.5,ug/m3 LC,54,Long Beach (North),1,100.0,88101,PM2.5 - Local Conditions,145,R & P Model 2025 PM-2.5 Sequential Air Sampler w/VSCC,31080.0,"Los Angeles-Long Beach-Anaheim, CA",6,California,37,Los Angeles,33.82376,-118.18921
05/16/2017,AQS,60592022,1,6.3,ug/m3 LC,35,Mission Viejo,1,100.0,88101,PM2.5 - Local Conditions,155,Thermo Electron Model RAAS2.5-300 Sequential w/VSCC,31080.0,"Los Angeles-Long Beach-Anaheim, CA",6,California,59,Orange,33.63003,-117.67593
05/04/2017,AQS,60392010,3,8.8,ug/m3 LC,49,Madera-City,1,100.0,88101,PM2.5 - Local Conditions,170,Met One BAM-1020 Mass Monitor w/VSCC,31460.0,"Madera, CA",6,California,39,Madera,36.953256,-120.034203
06/08/2017,AQS,60710027,1,11.6,ug/m3 LC,56,Ontario-Route 60 Near Road,1,100.0,88101,PM2.5 - Local Conditions,145,R & P Model 2025 PM-2.5 Sequential Air Sampler w/VSCC,40140.0,"Riverside-San Bernardino-Ontario, CA",6,California,71,San Bernardino,34.030833,-117.61722
09/08/2017,AQS,60771002,4,12.7,ug/m3 LC,58,Stockton-Hazelton,1,100.0,88101,PM2.5 - Local Conditions,170,Met One BAM-1020 Mass Monitor w/VSCC,44700.0,"Stockton-Lodi, CA",6,California,77,San Joaquin,37.9507408985318,-121.268522670981
05/04/2017,AQS,60519000,1,2.9,ug/m3 LC,16,Hoover Wilderness,1,100.0,88502,Acceptable PM2.5 AQI & Speciation Mass,707,"IMPROVE Module A with Cyclone Inlet-Teflon Filter, 2.2 sq. cm.",,,6,California,51,Mono,38.0880230383045,-119.178068761591
12/04/2017,AQS,60192008,3,3.2,ug/m3 LC,18,Huron,1,100.0,88502,Acceptable PM2.5 AQI & Speciation Mass,731,Met-One BAM-1020 W/PM2.5 SCC,23420.0,"Fresno, CA",6,California,19,Fresno,36.198672,-120.101096
12/06/2017,AQS,60290014,1,24.7,ug/m3 LC,80,Bakersfield-California,1,100.0,88101,PM2.5 - Local Conditions,145,R & P Model 2025 PM-2.5 Sequential Air Sampler w/VSCC,12540.0,"Bakersfield, CA",6,California,29,Kern,35.356615,-119.062613
01/31/2017,AQS,60290014,3,44.9,ug/m3 LC,124,Bakersfield-California,1,100.0,88502,Acceptable PM2.5 AQI & Speciation Mass,731,Met-One BAM-1020 W/PM2.5 SCC,12540.0,"Bakersfield, CA",6,California,29,Kern,35.356615,-119.062613
07/28/2017,AQS,61010003,3,14.1,ug/m3 LC,60,Yuba City,1,100.0,88502,Acceptable PM2.5 AQI & Speciation Mass,731,Met-One BAM-1020 W/PM2.5 SCC,49700.0,"Yuba City, CA",6,California,101,Sutter,39.1387725442464,-121.618548986224
05/02/2017,AQS,60710306,2,10.2,ug/m3 LC,53,Victorville-Park Avenue,1,100.0,88101,PM2.5 - Local Conditions,170,Met One BAM-1020 Mass Monitor w/VSCC,40140.0,"Riverside-San Bernardino-Ontario, CA",6,California,71,San Bernardino,34.5109611108812,-117.32554
11/27/2017,AQS,60270002,1,0.6,ug/m3 LC,3,White Mountain Research Center - Owens Valley Lab,1,100.0,88502,Acceptable PM2.5 AQI & Speciation Mass,707,"IMPROVE Module A with Cyclone Inlet-Teflon Filter, 2.2 sq. cm.",13860.0,"Bishop, CA",6,California,27,Inyo,37.360684,-118.330783
01/25/2017,AQS,60712002,11,13.1,ug/m3 LC,58,Fontana,1,100.0,88502,Acceptable PM2.5 AQI & Speciation Mass,810,Met One SASS/SuperSASS Teflon,40140.0,"Riverside-San Bernardino-Ontario, CA",6,California,71,San Bernardino,34.10002,-117.49201
05/19/2017,AQS,60658001,1,8.0,ug/m3 LC,44,Rubidoux,1,100.0,88101,PM2.5 - Local Conditions,145,R & P Model 2025 PM-2.5 Sequential Air Sampler w/VSCC,40140.0,"Riverside-San Bernardino-Ontario, CA",6,California,65,Riverside,33.9995800008751,-117.41601
11/19/2017,AQS,60290018,1,5.9,ug/m3 LC,33,Ridgecrest-Ward,1,100.0,88101,PM2.5 - Local Conditions,170,Met One BAM-1020 Mass Monitor w/VSCC,12540.0,"Bakersfield, CA",6,California,29,Kern,35.6429431008838,-117.715066487047
01/13/2017,AQS,61110009,3,1.8,ug/m3 LC,10,Piru - Pacific,1,100.0,88101,PM2.5 - Local Conditions,170,Met One BAM-1020 Mass Monitor w/VSCC,37100.0,"Oxnard-Thousand Oaks-Ventura, CA",6,California,111,Ventura,34.404281,-118.80998
01/05/2017,AQS,60010007,3,4.8,ug/m3 LC,27,Livermore,1,100.0,88101,PM2.5 - Local Conditions,170,Met One BAM-1020 Mass Monitor w/VSCC,41860.0,"San Francisco-Oakland-Hayward, CA",6,California,1,Alameda,37.687526,-121.784217
01/31/2017,AQS,60290010,1,46.4,ug/m3 LC,128,Bakersfield-Golden / M St,1,100.0,88101,PM2.5 - Local Conditions,145,R & P Model 2025 PM-2.5 Sequential Air Sampler w/VSCC,12540.0,"Bakersfield, CA",6,California,29,Kern,35.385574,-119.015009
12/14/2017,AQS,60711004,3,13.0,ug/m3 LC,58,Upland,1,100.0,88502,Acceptable PM2.5 AQI & Speciation Mass,731,Met-One BAM-1020 W/PM2.5 SCC,40140.0,"Riverside-San Bernardino-Ontario, CA",6,California,71,San Bernardino,34.10374,-117.62914
07/17/2017,AQS,60710005,3,20.9,ug/m3 LC,73,Crestline,1,100.0,88502,Acceptable PM2.5 AQI & Speciation Mass,731,Met-One BAM-1020 W/PM2.5 SCC,40140.0,"Riverside-San Bernardino-Ontario, CA",6,California,71,San Bernardino,34.2431,-117.27235
08/08/2017,AQS,60292009,3,11.4,ug/m3 LC,55,Lebec,1,100.0,88502,Acceptable PM2.5 AQI & Speciation Mass,731,Met-One BAM-1020 W/PM2.5 SCC,12540.0,"Bakersfield, CA",6,California,29,Kern,34.841567,-118.860588
11/15/2017,AQS,60550003,3,9.5,ug/m3 LC,52,Napa,1,100.0,88101,PM2.5 - Local Conditions,170,Met One BAM-1020 Mass Monitor w/VSCC,34900.0,"Napa, CA",6,California,55,Napa,38.310942,-122.296189
08/31/2017,AQS,60374002,1,16.2,ug/m3 LC,64,Long Beach (North),1,100.0,88101,PM2.5 - Local Conditions,145,R & P Model 2025 PM-2.5 Sequential Air Sampler w/VSCC,31080.0,"Los Angeles-Long Beach-Anaheim, CA",6,California,37,Los Angeles,33.82376,-118.18921
10/13/2017,AQS,60310004,8,26.2,ug/m3 LC,83,Corcoran-Patterson,1,100.0,88101,PM2.5 - Local Conditions,204,Teledyne Model 602 Beta plus w/VSCC,25260.0,"Hanford-Corcoran, CA",6,California,31,Kings,36.102244,-119.56565
01/24/2017,AQS,60850005,3,6.3,ug/m3 LC,35,San Jose - Jackson,1,100.0,88101,PM2.5 - Local Conditions,170,Met One BAM-1020 Mass Monitor w/VSCC,41940.0,"San Jose-Sunnyvale-Santa Clara, CA",6,California,85,Santa Clara,37.348497,-121.894898
08/13/2017,AQS,60731008,1,19.8,ug/m3 LC,71,Camp Pendleton,1,100.0,88502,Acceptable PM2.5 AQI & Speciation Mass,733,Met-One BAM W/PM2.5 VSCC,41740.0,"San Diego-Carlsbad, CA",6,California,73,San Diego,33.217046,-117.396249
12/20/2017,AQS,60530002,3,5.3,ug/m3 LC,29,Carmel Valley,1,100.0,88101,PM2.5 - Local Conditions,170,Met One BAM-1020 Mass Monitor w/VSCC,41500.0,"Salinas, CA",6,California,53,Monterey,36.4818700009023,-121.73333
12/04/2017,AQS,60431001,3,5.4,ug/m3 LC,30,Yosemite NP-Yosemite Village Vistor Center,1,100.0,88502,Acceptable PM2.5 AQI & Speciation Mass,731,Met-One BAM-1020 W/PM2.5 SCC,,,6,California,43,Mariposa,37.748707,-119.587094
